,movement,UTC,lat,lon,alt,accelX,accelY,accelZ,gyroX,gyroY,gyroZ,magX,magY,magZ,roll,pitch,yaw,gndmtr1,gndmtr2,amtr1,amtr2,amtr3,amtr4,uS1,uS2,uS3,uS4,uS5,uS6,payBay
1,68,0,0,0,0,-0.1987013,-0.07116492,9.900261,0.009251449,-0.6886994,-0.1202409,1.66E-05,1.56E-06,3.82E-05,-0.4118457,1.14976,0,1,1,0,0,0,0,0,0,0,0,0,0,0
2,68,0,0,0,0,-0.214961,-0.0666855,9.887196,-0.03144757,-0.7275585,-0.07168368,1.76E-05,1.06E-06,3.82E-05,-0.3864331,1.245463,0,1,1,0,0,0,0,0,0,0,0,0,0,0
3,68,0,0,0,0,-0.201055,-0.05855037,9.899152,0.02401844,-0.672913,-0.1004938,1.61E-05,6.25E-08,3.87E-05,-0.3388825,1.163516,0,1,1,0,0,0,0,0,0,0,0,0,0,0
4,68,0,0,0,0,-0.2047959,-0.0668006,9.88606,-0.02559565,0.3196647,0.04499402,1.76E-05,1.06E-06,3.74E-05,-0.3871446,1.186721,0,1,1,0,0,0,0,0,0,0,0,0,0,0
5,68,0,0,0,0,-0.2037582,-0.06684578,9.890798,0.05170102,0.3602924,0.02399295,1.71E-05,1.06E-06,3.22E-05,-0.3872208,1.180144,0,1,1,0,0,0,0,0,0,0,0,0,0,0
6,68,0,0,0,0,-0.2053644,-0.2052929,9.905834,0.003866149,0.3340926,0.01737866,1.76E-05,6.25E-08,3.89E-05,-1.187253,1.187412,0,1,1,0,0,0,0,0,0,0,0,0,0,0
7,68,0,0,0,0,-0.1860994,-0.06650577,9.897393,0.03124148,-0.6775824,-0.05582056,1.76E-05,1.56E-06,3.91E-05,-0.3849946,1.077174,0,1,1,0,0,0,0,0,0,0,0,0,0,0
8,68,0,0,0,0,-0.2094232,-0.07163386,9.900208,0.02368368,-0.710899,-0.1127794,1.71E-05,6.25E-08,3.74E-05,-0.4145616,1.211789,0,1,1,0,0,0,0,0,0,0,0,0,0,0
9,68,0,0,0,0,-0.1878955,-0.05450508,9.897466,-0.01625554,-0.675182,-0.1201363,1.61E-05,6.25E-08,3.77E-05,-0.3155231,1.087567,0,1,1,0,0,0,0,0,0,0,0,0,0,0
10,68,0,0,0,0,-0.1920395,-0.06330863,9.87845,-0.01807938,0.3332856,-0.0075379,1.71E-05,5.63E-07,3.77E-05,-0.3671899,1.113681,0,1,1,0,0,0,0,0,0,0,0,0,0,0
11,68,0,0,0,0,-0.1948209,-0.06982256,9.872476,0.04041437,0.3223073,-0.01408747,1.56E-06,1.06E-06,3.98E-05,-0.4052146,1.130485,0,1,1,0,0,0,0,0,0,0,0,0,0,0
12,68,0,0,0,0,-0.2073639,-0.2039892,9.893998,0.005063815,-0.7369084,-0.05695825,1.76E-05,1.56E-06,3.77E-05,-1.181127,1.200406,0,1,1,0,0,0,0,0,0,0,0,0,0,0
13,68,0,0,0,0,-0.1861077,-0.05559833,9.879122,-0.01026209,0.3968292,0.06458407,1.66E-05,1.06E-06,3.87E-05,-0.3224493,1.079221,0,1,1,0,0,0,0,0,0,0,0,0,0,0
14,68,0,0,0,0,-0.1815233,-0.07054199,9.866616,0.005561045,-0.6831736,-0.05804834,1.61E-05,1.56E-06,3.81E-05,-0.4096328,1.053966,0,1,1,0,0,0,0,0,0,0,0,0,0,0
15,68,0,0,0,0,-0.198341,-0.06497608,9.870716,0.03110487,-0.6991264,-0.1043446,1.76E-05,1.56E-06,3.92E-05,-0.3771562,1.151115,0,1,1,0,0,0,0,0,0,0,0,0,0,0
16,68,0,0,0,0,-0.193371,-0.05566103,9.900983,0.02960574,0.3597259,0.1176661,1.71E-05,1.06E-06,3.79E-05,-0.3221002,1.118854,0,1,1,0,0,0,0,0,0,0,0,0,0,0
17,68,0,0,0,0,-0.1999731,-0.06637423,9.902655,-0.009176203,-0.6983823,-0.09684765,1.76E-05,1.56E-06,3.97E-05,-0.384029,1.156841,0,1,1,0,0,0,0,0,0,0,0,0,0,0
18,68,0,0,0,0,-0.1796749,-0.2031923,9.903604,0.02778207,-0.6644228,-0.1189056,1.76E-05,6.25E-08,3.88E-05,-1.175373,1.039149,0,1,1,0,0,0,0,0,0,0,0,0,0,0
19,68,0,0,0,0,-0.323651,-0.05703942,9.89503,0.005185662,-0.7250968,-0.0669901,1.61E-05,1.56E-06,3.76E-05,-0.3302751,1.873357,0,1,1,0,0,0,0,0,0,0,0,0,0,0
20,68,0,0,0,0,-0.1975021,-0.05607541,9.881433,0.04908163,-0.7202386,0.00236177,1.76E-05,1.56E-06,3.28E-05,-0.3251401,1.145011,0,1,1,0,0,0,0,0,0,0,0,0,0,0
21,68,0,0,0,0,-0.1998869,-0.2070054,9.883954,-0.0106742,0.3573414,0.1018339,1.76E-05,1.06E-06,3.86E-05,-1.199803,1.158302,0,1,1,0,0,0,0,0,0,0,0,0,0,0
22,68,0,0,0,0,-0.1892593,-0.05512416,9.902781,0.03307029,0.3309234,0.06410595,1.61E-05,1.06E-06,3.76E-05,-0.3189356,1.094871,0,1,1,0,0,0,0,0,0,0,0,0,0,0
23,68,0,0,0,0,-0.185948,-0.06348029,9.89268,0.005729458,-0.6673092,-0.07523455,1.61E-05,5.63E-07,3.62E-05,-0.367656,1.076813,0,1,1,0,0,0,0,0,0,0,0,0,0,0
24,68,0,0,0,0,-0.1845791,-0.1976445,9.889415,0.01999224,-0.7022447,-0.02725782,1.76E-05,6.25E-08,3.86E-05,-1.14493,1.069049,0,1,1,0,0,0,0,0,0,0,0,0,0,0
25,68,0,0,0,0,-0.1920206,-0.06283215,9.896207,0.0602922,-0.7057708,-0.06951509,1.66E-05,1.56E-06,3.77E-05,-0.3637726,1.111574,0,1,1,0,0,0,0,0,0,0,0,0,0,0
26,68,0,0,0,0,-0.2036916,-0.07881329,9.888943,4.69E-05,0.3308197,0.1167425,1.76E-05,1.06E-06,3.87E-05,-0.4566286,1.179969,0,1,1,0,0,0,0,0,0,0,0,0,0,0
27,68,0,0,0,0,-0.1950401,-0.05921002,9.8974,-0.1048035,-0.7342148,-0.02391445,1.61E-05,1.06E-06,3.96E-05,-0.3427611,1.128915,0,1,1,0,0,0,0,0,0,0,0,0,0,0
28,68,0,0,0,0,-0.1753831,-0.05872309,9.879152,-0.03233644,0.3872235,0.07683877,1.66E-05,1.56E-06,3.76E-05,-0.3405703,1.017039,0,1,1,0,0,0,0,0,0,0,0,0,0,0
29,68,0,0,0,0,-0.3188754,-0.07074676,9.876616,-0.02728591,-0.6735544,-0.07306649,1.71E-05,6.25E-08,3.82E-05,-0.410406,1.849156,0,1,1,0,0,0,0,0,0,0,0,0,0,0
30,68,0,0,0,0,-0.2015946,-0.05660844,9.879042,0.03305347,0.3274482,0.05220817,1.66E-05,1.06E-06,3.87E-05,-0.3283101,1.169013,0,1,1,0,0,0,0,0,0,0,0,0,0,0
31,68,0,0,0,0,-0.1990301,-0.196304,9.89409,0.00012037,0.3259489,0.02435927,1.76E-05,1.56E-06,3.86E-05,-1.13663,1.152183,0,1,1,0,0,0,0,0,0,0,0,0,0,0
32,68,0,0,0,0,-0.1834231,-0.07366446,9.888481,-0.005725604,-0.7211587,-0.09612888,1.76E-05,6.25E-08,3.88E-05,-0.4268183,1.062638,0,1,1,0,0,0,0,0,0,0,0,0,0,0
33,68,0,0,0,0,-0.1939918,-0.07350371,9.883698,-0.005085589,-0.6646513,-0.1886692,1.61E-05,1.56E-06,3.92E-05,-0.426093,1.124395,0,1,1,0,0,0,0,0,0,0,0,0,0,0
34,68,0,0,0,0,-0.1887837,-0.07432473,9.906796,-0.001859007,-0.6980748,-0.08981226,1.66E-05,1.06E-06,3.82E-05,-0.4298477,1.091664,0,1,1,0,0,0,0,0,0,0,0,0,0,0
35,68,0,0,0,0,-0.194545,-0.07887937,9.882476,-0.003726549,0.3158413,0.09611716,1.61E-05,6.25E-08,3.22E-05,-0.4573104,1.127735,0,1,1,0,0,0,0,0,0,0,0,0,0,0
36,68,0,0,0,0,-0.1931105,-0.06998592,9.893194,-0.02923663,0.3387443,0.1662089,1.76E-05,6.25E-08,3.94E-05,-0.4053121,1.118217,0,1,1,0,0,0,0,0,0,0,0,0,0,0
37,68,0,0,0,0,-0.1909576,-0.0711325,9.881953,0.000298622,0.3483015,0.04621032,1.76E-05,1.56E-06,3.79E-05,-0.4124206,1.10701,0,1,1,0,0,0,0,0,0,0,0,0,0,0
38,68,0,0,0,0,-0.1820279,-0.06392709,9.8637,0.05624426,-0.7418216,-0.02769557,1.71E-05,1.06E-06,3.82E-05,-0.3713314,1.057212,0,1,1,0,0,0,0,0,0,0,0,0,0,0
39,68,0,0,0,0,-0.2010385,-0.05495281,9.898584,0.03121585,-0.6906743,-0.1300846,1.66E-05,6.25E-08,3.79E-05,-0.318079,1.163489,0,1,1,0,0,0,0,0,0,0,0,0,0,0
40,68,0,0,0,0,-0.2031847,-0.06313682,9.873073,0.04227952,-0.6664647,-0.017195,1.71E-05,6.25E-08,3.96E-05,-0.3663929,1.178938,0,1,1,0,0,0,0,0,0,0,0,0,0,0
41,68,0,0,0,0,-0.1936374,-0.0591822,9.890898,0.009221703,-0.6892769,-0.1011888,1.71E-05,6.25E-08,3.82E-05,-0.3428253,1.121535,0,1,1,0,0,0,0,0,0,0,0,0,0,0
42,68,0,0,0,0,-0.1899395,-0.07058257,9.887288,-0.02778314,-0.7272893,-0.0719764,1.76E-05,1.56E-06,3.81E-05,-0.4090115,1.100516,0,1,1,0,0,0,0,0,0,0,0,0,0,0
43,68,0,0,0,0,-0.2073599,-0.05589884,9.873102,-0.06085079,-0.7565897,-0.1950074,1.61E-05,1.56E-06,3.79E-05,-0.3243898,1.203159,0,1,1,0,0,0,0,0,0,0,0,0,0,0
44,68,0,0,0,0,-0.1899411,-0.06831308,9.905647,-0.04193003,-0.6806576,-0.1261746,1.71E-05,1.06E-06,3.82E-05,-0.3951271,1.098488,0,1,1,0,0,0,0,0,0,0,0,0,0,0
45,68,0,0,0,0,-0.1904359,-0.2029436,9.886393,0.02215308,0.3347459,0.03877762,1.71E-05,1.06E-06,3.81E-05,-1.175978,1.103287,0,1,1,0,0,0,0,0,0,0,0,0,0,0
46,68,0,0,0,0,-0.2063164,-0.08901652,9.896554,-0.003562026,0.325333,0.0360833,1.61E-05,1.56E-06,3.92E-05,-0.5153444,1.194241,0,1,1,0,0,0,0,0,0,0,0,0,0,0
47,68,0,0,0,0,-0.1824016,-0.2059747,9.877534,-0.01456356,0.3306668,0.08742997,1.61E-05,1.06E-06,3.81E-05,-1.194607,1.057691,0,1,1,0,0,0,0,0,0,0,0,0,0,0
48,68,0,0,0,0,-0.2021555,-0.2052829,9.898748,0.007355305,0.3215106,0.06141162,1.66E-05,6.25E-08,3.94E-05,-1.188045,1.169699,0,1,1,0,0,0,0,0,0,0,0,0,0,0
49,68,0,0,0,0,-0.2027268,-0.05850564,9.895594,0.07695356,0.3197921,0.02824385,1.61E-05,1.56E-06,3.87E-05,-0.3387454,1.17361,0,1,1,0,0,0,0,0,0,0,0,0,0,0
50,68,0,0,0,0,-0.1899422,-0.06698886,9.887312,-0.03833195,-0.6785305,-0.06122355,1.61E-05,1.06E-06,3.86E-05,-0.3881864,1.100532,0,1,1,0,0,0,0,0,0,0,0,0,0,0
51,68,0,0,0,0,-0.1928554,-0.07712339,9.885454,0.01304379,-0.6765029,-0.1343758,1.71E-05,6.25E-08,3.83E-05,-0.4469956,1.117608,0,1,1,0,0,0,0,0,0,0,0,0,0,0
52,68,0,0,0,0,-0.1964898,-0.07349788,9.887237,0.08810361,0.3362333,0.0178003,1.61E-05,6.25E-08,3.74E-05,-0.4259067,1.138462,0,1,1,0,0,0,0,0,0,0,0,0,0,0
53,68,0,0,0,0,-0.1978313,-0.2063743,9.875683,0.05336549,-0.6733097,-0.1452167,1.71E-05,1.56E-06,3.86E-05,-1.197148,1.147355,0,1,1,0,0,0,0,0,0,0,0,0,0,0
54,68,0,0,0,0,-0.186844,-0.07299143,9.883736,-0.03830918,-0.6749399,-0.05313616,1.66E-05,1.56E-06,3.78E-05,-0.4231219,1.082972,0,1,1,0,0,0,0,0,0,0,0,0,0,0
55,68,0,0,0,0,-0.1889068,-0.06403928,9.892071,0.04227459,-0.6697088,-0.03671363,1.71E-05,1.56E-06,3.82E-05,-0.3709162,1.094009,0,1,1,0,0,0,0,0,0,0,0,0,0,0
56,68,0,0,0,0,-0.2088052,-0.2038984,9.883341,-0.005436373,-0.690354,-0.1000179,1.71E-05,1.56E-06,3.83E-05,-1.181874,1.21005,0,1,1,0,0,0,0,0,0,0,0,0,0,0
57,68,0,0,0,0,-0.1790057,-0.07079664,9.899174,0.009460478,-0.6688977,-0.140771,1.71E-05,1.56E-06,3.83E-05,-0.4097594,1.035934,0,1,1,0,0,0,0,0,0,0,0,0,0,0
58,68,0,0,0,0,-0.196742,-0.07042674,9.876605,-0.01053736,0.3599984,0.01419416,1.61E-05,1.56E-06,3.93E-05,-0.4085499,1.141152,0,1,1,0,0,0,0,0,0,0,0,0,0,0
59,68,0,0,0,0,-0.2025418,-0.07464276,9.89016,0.03497044,-0.6729138,-0.07469895,1.71E-05,5.63E-07,3.74E-05,-0.432413,1.17317,0,1,1,0,0,0,0,0,0,0,0,0,0,0
60,68,0,0,0,0,-0.1885965,-0.06769785,9.900924,-0.06772625,-0.6979449,-0.122181,1.66E-05,6.25E-08,3.91E-05,-0.3917554,1.091234,0,1,1,0,0,0,0,0,0,0,0,0,0,0
61,68,0,0,0,0,-0.1935089,-0.07700137,9.868883,-0.03979608,0.3652566,0.02508974,1.61E-05,1.06E-06,3.86E-05,-0.4470378,1.123277,0,1,1,0,0,0,0,0,0,0,0,0,0,0
62,68,0,0,0,0,-0.2068017,-0.05676534,9.910972,-0.04402925,0.3098662,0.07219769,1.71E-05,6.25E-08,3.79E-05,-0.3281595,1.195337,0,1,1,0,0,0,0,0,0,0,0,0,0,0
63,68,0,0,0,0,-0.1914903,-0.2060234,9.900569,0.008212929,0.4263232,0.1468713,1.61E-05,1.06E-06,3.84E-05,-1.19211,1.1078,0,1,1,0,0,0,0,0,0,0,0,0,0,0
64,68,0,0,0,0,-0.1902092,-0.06956477,9.913922,-0.06052712,-0.7030764,-0.06226608,1.66E-05,1.06E-06,3.89E-05,-0.4020309,1.099119,0,1,1,0,0,0,0,0,0,0,0,0,0,0
65,68,0,0,0,0,-0.2022855,-0.05781833,9.881989,0.02402931,-0.6695535,-0.08478551,1.61E-05,1.56E-06,3.86E-05,-0.3352269,1.172667,0,1,1,0,0,0,0,0,0,0,0,0,0,0
66,68,0,0,0,0,-0.1959804,-0.06094248,9.889691,0.07701878,0.3399498,0.1224929,1.71E-05,1.56E-06,3.78E-05,-0.3530649,1.135239,0,1,1,0,0,0,0,0,0,0,0,0,0,0
67,68,0,0,0,0,-0.1749719,-0.06895091,9.885002,0.03367152,0.3961233,0.06441525,1.61E-05,1.56E-06,3.73E-05,-0.3996491,1.014047,0,1,1,0,0,0,0,0,0,0,0,0,0,0
68,68,0,0,0,0,-0.1966482,-0.06741277,9.873667,-0.05660595,-0.6820813,-0.1135723,1.71E-05,1.06E-06,3.79E-05,-0.3911827,1.14095,0,1,1,0,0,0,0,0,0,0,0,0,0,0
69,68,0,0,0,0,-0.2023628,-0.05723475,9.88436,-0.02036194,-0.7155166,-0.06354156,1.71E-05,6.25E-08,3.86E-05,-0.3317638,1.172834,0,1,1,0,0,0,0,0,0,0,0,0,0,0
70,68,0,0,0,0,-0.1979529,-0.198012,9.87929,0.03495362,-0.676389,-0.08659667,1.71E-05,1.56E-06,3.81E-05,-1.148234,1.147661,0,1,1,0,0,0,0,0,0,0,0,0,0,0
71,68,0,0,0,0,-0.1917095,-0.1957571,9.888803,0.009366318,-0.6738746,-0.1031332,1.71E-05,1.06E-06,3.89E-05,-1.13407,1.110409,0,1,1,0,0,0,0,0,0,0,0,0,0,0
72,68,0,0,0,0,-0.2015017,-0.2058775,9.896973,0.01846576,0.330886,0.03098297,1.71E-05,1.06E-06,3.79E-05,-1.191699,1.166125,0,1,1,0,0,0,0,0,0,0,0,0,0,0
73,68,0,0,0,0,-0.3245681,-0.06415861,9.886693,-0.05131773,0.3132648,0.06943923,1.66E-05,6.25E-08,3.84E-05,-0.3718095,1.880236,0,1,1,0,0,0,0,0,0,0,0,0,0,0
74,68,0,0,0,0,-0.1902595,-0.07950583,9.878942,0.005369864,-0.7026287,-0.04894951,1.76E-05,1.06E-06,3.78E-05,-0.4611071,1.103293,0,1,1,0,0,0,0,0,0,0,0,0,0,0
75,68,0,0,0,0,-0.1962767,-0.07585142,9.880713,0.005269755,-0.7077211,-0.007501316,1.61E-05,6.25E-08,3.86E-05,-0.4398347,1.137976,0,1,1,0,0,0,0,0,0,0,0,0,0,0
76,68,0,0,0,0,-0.1951059,-0.07407285,9.881322,0.01859047,0.3521988,0.08712783,1.66E-05,6.25E-08,3.81E-05,-0.4294954,1.131122,0,1,1,0,0,0,0,0,0,0,0,0,0,0
77,68,0,0,0,0,-0.1988058,-0.06015036,9.866605,-0.04606514,-0.7246984,-0.07385673,1.66E-05,1.56E-06,3.81E-05,-0.3492913,1.154296,0,1,1,0,0,0,0,0,0,0,0,0,0,0
78,68,0,0,0,0,-0.1914459,-0.06044742,9.896817,-0.001893673,-0.7018964,-0.09027874,1.66E-05,5.63E-07,3.82E-05,-0.3499447,1.108181,0,1,1,0,0,0,0,0,0,0,0,0,0,0
79,68,0,0,0,0,-0.189754,-0.0616862,9.899776,0.03339133,0.3560485,-0.005493336,1.71E-05,1.56E-06,3.89E-05,-0.3570094,1.098061,0,1,1,0,0,0,0,0,0,0,0,0,0,0
80,68,0,0,0,0,-0.1934692,-0.2065127,9.88813,-0.02024215,-0.6974478,-0.02691532,1.76E-05,6.25E-08,3.74E-05,-1.196443,1.120651,0,1,1,0,0,0,0,0,0,0,0,0,0,0
81,68,0,0,0,0,-0.1852491,-0.07305152,9.88966,0.009336571,-0.6744522,-0.08408109,1.61E-05,1.56E-06,3.84E-05,-0.4232166,1.073086,0,1,1,0,0,0,0,0,0,0,0,0,0,0
82,68,0,0,0,0,-0.1877656,-0.0741211,9.875439,-0.006314935,-0.7861276,-0.1040591,1.61E-05,1.56E-06,3.83E-05,-0.4300312,1.089225,0,1,1,0,0,0,0,0,0,0,0,0,0,0
83,68,0,0,0,0,-0.3212841,-0.06173744,9.877257,0.0126048,-0.707067,-0.01189717,1.61E-05,6.25E-08,3.88E-05,-0.3581205,1.863005,0,1,1,0,0,0,0,0,0,0,0,0,0,0
84,68,0,0,0,0,-0.1861093,-0.2071561,9.881651,-0.03984962,0.3642169,0.05938357,1.76E-05,6.25E-08,3.78E-05,-1.200957,1.078734,0,1,1,0,0,0,0,0,0,0,0,0,0,0
85,68,0,0,0,0,-0.1863368,-0.08320004,9.886628,0.03849827,-0.6941885,-0.1235156,1.76E-05,1.06E-06,3.82E-05,-0.4821562,1.079708,0,1,1,0,0,0,0,0,0,0,0,0,0,0
86,68,0,0,0,0,-0.1881335,-0.07012776,9.905052,-0.001654898,-0.6815172,-0.1298611,1.76E-05,1.56E-06,3.87E-05,-0.4056473,1.0881,0,1,1,0,0,0,0,0,0,0,0,0,0,0
87,68,0,0,0,0,-0.1820207,-0.07351032,9.863635,0.02680935,-0.7651732,-0.08530907,1.66E-05,1.56E-06,3.74E-05,-0.4269981,1.057171,0,1,1,0,0,0,0,0,0,0,0,0,0,0
88,68,0,0,0,0,-0.1924965,-0.0687914,9.892613,0.1069066,0.3878394,0.003348849,1.61E-05,1.56E-06,3.74E-05,-0.3984178,1.114729,0,1,1,0,0,0,0,0,0,0,0,0,0,0
89,68,0,0,0,0,-0.1954691,-0.07654165,9.892548,0.0372093,0.3813368,0.05463574,1.76E-05,6.25E-08,3.78E-05,-0.4433061,1.131939,0,1,1,0,0,0,0,0,0,0,0,0,0,0
90,68,0,0,0,0,-0.2114386,-0.2027216,9.891029,0.09531863,0.3377055,0.112942,1.71E-05,5.63E-07,3.87E-05,-1.174141,1.224357,0,1,1,0,0,0,0,0,0,0,0,0,0,0
91,68,0,0,0,0,-0.184217,-0.06578296,9.876103,0.02595938,0.3409163,-0.02963629,1.66E-05,1.56E-06,3.81E-05,-0.3816313,1.068579,0,1,1,0,0,0,0,0,0,0,0,0,0,0
92,68,0,0,0,0,-0.1956176,-0.08363348,9.878888,-0.02891456,0.3607409,0.07328066,1.76E-05,6.25E-08,3.71E-05,-0.4850476,1.134358,0,1,1,0,0,0,0,0,0,0,0,0,0,0
93,68,0,0,0,0,-0.1765122,-0.06481296,9.895675,0.1136453,0.3265376,0.01816221,1.66E-05,6.25E-08,3.76E-05,-0.3752605,1.021872,0,1,1,0,0,0,0,0,0,0,0,0,0,0
94,68,0,0,0,0,-0.2169632,-0.06178816,9.875383,-0.02810006,-0.7649286,-0.09569337,1.66E-05,6.25E-08,3.78E-05,-0.3584827,1.258567,0,1,1,0,0,0,0,0,0,0,0,0,0,0
95,68,0,0,0,0,-0.1793284,-0.07612619,9.890851,0.02229975,0.3438911,-0.009824933,1.76E-05,5.63E-07,3.93E-05,-0.4409755,1.03867,0,1,1,0,0,0,0,0,0,0,0,0,0,0
96,68,0,0,0,0,-0.2033203,-0.06149318,9.895571,-0.04946414,-0.6946251,-0.0622113,1.71E-05,6.25E-08,3.77E-05,-0.3560436,1.177045,0,1,1,0,0,0,0,0,0,0,0,0,0,0
97,68,0,0,0,0,-0.1927775,-0.2065008,9.885174,-0.04954332,-0.7087567,-0.1021815,1.71E-05,1.56E-06,3.78E-05,-1.196732,1.116979,0,1,1,0,0,0,0,0,0,0,0,0,0,0
98,68,0,0,0,0,-0.1872736,-0.06396536,9.878469,0.05706253,-0.6629617,-0.09838488,1.56E-06,1.56E-06,3.73E-05,-0.3709982,1.086046,0,1,1,0,0,0,0,0,0,0,0,0,0,0
99,68,0,0,0,0,-0.1854401,-0.07441417,9.913913,0.008920573,-0.7203127,-0.08967888,1.61E-05,1.06E-06,3.91E-05,-0.430056,1.071564,0,1,1,0,0,0,0,0,0,0,0,0,0,0
100,68,0,0,0,0,-0.1854092,-0.06457061,9.876106,-0.07288467,0.3449953,-0.01652275,1.76E-05,6.25E-08,3.76E-05,-0.3745981,1.075494,0,1,1,0,0,0,0,0,0,0,0,0,0,0
101,68,0,0,0,0,-0.1749422,-0.05743682,9.865552,0.009163238,-0.6935608,-0.0864135,1.61E-05,6.25E-08,3.82E-05,-0.3335699,1.015881,0,1,1,0,0,0,0,0,0,0,0,0,0,0
102,68,0,0,0,0,-0.1956767,-0.0560894,9.880257,-0.02001631,-0.674171,-0.03554772,1.56E-06,5.63E-07,3.84E-05,-0.3252599,1.134566,0,1,1,0,0,0,0,0,0,0,0,0,0,0
103,68,0,0,0,0,-0.1904613,-0.06649364,9.903291,0.06056747,-0.6689401,-0.01912512,1.66E-05,-1.44E-05,3.71E-05,-0.3846951,1.101759,0,1,1,0,0,0,0,0,0,0,0,0,0,0
104,68,0,0,0,0,-0.201089,-0.06454756,9.900294,-0.02799606,-0.7534635,-0.09429392,1.71E-05,5.63E-07,3.92E-05,-0.3735496,1.163573,0,1,1,0,0,0,0,0,0,0,0,0,0,0
105,68,0,0,0,0,-0.1832932,-0.06764805,9.88438,0.009335541,-0.6713237,-0.06075207,1.66E-05,1.56E-06,3.77E-05,-0.3921224,1.06233,0,1,1,0,0,0,0,0,0,0,0,0,0,0
106,68,0,0,0,0,-0.2036952,-0.07402167,9.888975,0.0381635,-0.7321745,-0.1358014,1.71E-05,1.06E-06,3.87E-05,-0.4288665,1.179991,0,1,1,0,0,0,0,0,0,0,0,0,0,0
107,68,0,0,0,0,-0.2036107,-0.05855605,9.904466,-0.03188039,-0.776894,-0.08917926,6.25E-08,1.56E-06,3.88E-05,-0.3387336,1.177669,0,1,1,0,0,0,0,0,0,0,0,0,0,0
108,68,0,0,0,0,-0.2074771,-0.2068807,9.879185,-0.06037347,-0.6969442,-0.1380081,1.76E-05,6.25E-08,3.84E-05,-1.19966,1.202853,0,1,1,0,0,0,0,0,0,0,0,0,0,0
109,68,0,0,0,0,-0.1946655,-0.07184133,9.904418,0.03324774,0.3375176,-0.02687778,1.61E-05,6.25E-08,3.78E-05,-0.4155855,1.12594,0,1,1,0,0,0,0,0,0,0,0,0,0,0
110,68,0,0,0,0,-0.1952851,-0.06572211,9.886703,-0.03474372,-0.6828915,-0.03530977,1.61E-05,6.25E-08,3.78E-05,-0.3808695,1.131551,0,1,1,0,0,0,0,0,0,0,0,0,0,0
111,68,0,0,0,0,-0.1856199,-0.06533815,9.900954,0.06049631,-0.6892132,-0.1095638,1.71E-05,1.06E-06,3.84E-05,-0.3780995,1.074013,0,1,1,0,0,0,0,0,0,0,0,0,0,0
112,68,0,0,0,0,-0.1871005,-0.0640571,9.891487,0.01861816,0.3590336,0.1147338,1.66E-05,6.25E-08,3.89E-05,-0.3710413,1.083615,0,1,1,0,0,0,0,0,0,0,0,0,0,0
113,68,0,0,0,0,-0.183131,-0.07899739,9.87957,-0.07121357,-0.672733,-0.07670812,1.61E-05,5.63E-07,3.82E-05,-0.4581293,1.061898,0,1,1,0,0,0,0,0,0,0,0,0,0,0
114,68,0,0,0,0,-0.2035637,-0.06992844,9.903205,0.02958503,0.3498781,0.06292064,1.61E-05,1.06E-06,3.84E-05,-0.4045698,1.177539,0,1,1,0,0,0,0,0,0,0,0,0,0,0
115,68,0,0,0,0,-0.1975342,-0.06446842,9.882559,-0.01822216,0.330513,0.08391231,1.66E-05,1.56E-06,3.82E-05,-0.3737611,1.145061,0,1,1,0,0,0,0,0,0,0,0,0,0,0
116,68,0,0,0,0,-0.2060903,-0.05734847,9.90742,0.01662219,-0.6873521,-0.1474994,1.66E-05,1.06E-06,3.94E-05,-0.3316492,1.191653,0,1,1,0,0,0,0,0,0,0,0,0,0,0
117,68,0,0,0,0,-0.198044,-0.2046197,9.882203,0.05148193,0.3528895,0.1416497,1.66E-05,1.06E-06,3.82E-05,-1.18619,1.147835,0,1,1,0,0,0,0,0,0,0,0,0,0,0
118,68,0,0,0,0,-0.2096257,-0.08352883,9.88829,0.02733736,-0.7139893,-0.1287803,1.71E-05,6.25E-08,3.89E-05,-0.4839801,1.21441,0,1,1,0,0,0,0,0,0,0,0,0,0,0
119,68,0,0,0,0,-0.1979938,-0.1945523,9.898841,0.01462685,0.3146368,0.05227236,1.71E-05,1.56E-06,3.79E-05,-1.125949,1.14564,0,1,1,0,0,0,0,0,0,0,0,0,0,0
120,68,0,0,0,0,-0.191445,-0.06164532,9.896809,-0.01471905,0.3119049,0.07366632,1.61E-05,6.25E-08,3.86E-05,-0.3568798,1.108176,0,1,1,0,0,0,0,0,0,0,0,0,0,0
121,68,0,0,0,0,-0.1888143,-0.05922846,9.889145,0.02923733,0.3147897,0.08158483,1.61E-05,6.25E-08,3.93E-05,-0.343154,1.093801,0,1,1,0,0,0,0,0,0,0,0,0,0,0
122,68,0,0,0,0,-0.2076234,-0.06314004,9.881336,-0.07337721,0.3133915,0.1402497,1.61E-05,5.63E-07,3.88E-05,-0.3661052,1.203678,0,1,1,0,0,0,0,0,0,0,0,0,0,0
123,68,0,0,0,0,-0.198642,-0.07342288,9.880126,0.06790458,-0.6745431,-0.07017913,1.61E-05,6.25E-08,3.77E-05,-0.4257783,1.151757,0,1,1,0,0,0,0,0,0,0,0,0,0,0
124,68,0,0,0,0,-0.195297,-0.203504,9.889325,0.0330902,0.3250128,0.006016615,1.61E-05,6.25E-08,3.74E-05,-1.178875,1.131105,0,1,1,0,0,0,0,0,0,0,0,0,0,0
125,68,0,0,0,0,-0.1830347,-0.07910451,9.894956,0.000345988,0.3681126,0.1518907,1.76E-05,5.63E-07,3.82E-05,-0.4580372,1.05969,0,1,1,0,0,0,0,0,0,0,0,0,0,0
126,68,0,0,0,0,-0.1979785,-0.0614357,9.877843,-0.009109959,-0.6813532,-0.02592756,1.71E-05,1.06E-06,3.84E-05,-0.3563492,1.148185,0,1,1,0,0,0,0,0,0,0,0,0,0,0
127,68,0,0,0,0,-0.189735,-0.06155603,9.88084,0.02245913,0.3690257,0.04678636,1.61E-05,1.06E-06,3.78E-05,-0.3569388,1.100055,0,1,1,0,0,0,0,0,0,0,0,0,0,0
128,68,0,0,0,0,-0.1883165,-0.05685908,9.892122,-0.07128187,-0.6835049,-0.1009702,1.76E-05,1.56E-06,3.92E-05,-0.3293277,1.090591,0,1,1,0,0,0,0,0,0,0,0,0,0,0
129,68,0,0,0,0,-0.1972416,-0.07040031,9.873644,0.0310503,-0.6970375,-0.04672167,1.71E-05,1.06E-06,3.87E-05,-0.4085191,1.144392,0,1,1,0,0,0,0,0,0,0,0,0,0,0
130,68,0,0,0,0,-0.1966098,-0.06740508,9.872483,-0.02472577,-0.7923355,-0.06876804,1.66E-05,1.06E-06,3.93E-05,-0.391185,1.140864,0,1,1,0,0,0,0,0,0,0,0,0,0,0
131,68,0,0,0,0,-0.2028309,-0.201571,9.882792,-0.005670229,-0.7074893,-0.04091697,1.66E-05,6.25E-08,3.88E-05,-1.168452,1.175509,0,1,1,0,0,0,0,0,0,0,0,0,0,0
132,68,0,0,0,0,-0.2053575,-0.0609225,9.903257,0.05903893,0.3704478,0.08577377,1.66E-05,1.06E-06,3.88E-05,-0.3524657,1.187913,0,1,1,0,0,0,0,0,0,0,0,0,0,0
133,68,0,0,0,0,-0.2015046,-0.07408899,9.894902,-0.04199547,-0.6819283,-0.08425984,1.61E-05,1.56E-06,3.96E-05,-0.4289994,1.166605,0,1,1,0,0,0,0,0,0,0,0,0,0,0
134,68,0,0,0,0,-0.1944643,-0.05849581,9.879655,-0.02354402,-0.6717833,-0.1228948,1.56E-06,1.56E-06,3.88E-05,-0.3392349,1.127605,0,1,1,0,0,0,0,0,0,0,0,0,0,0
135,68,0,0,0,0,-0.2022654,-0.05901239,9.88139,0.03490809,-0.6835703,-0.1027714,1.56E-06,1.56E-06,3.88E-05,-0.3421706,1.172621,0,1,1,0,0,0,0,0,0,0,0,0,0,0
136,68,0,0,0,0,-0.1909045,-0.06478515,9.91691,0.03749155,0.4151545,0.07788623,1.76E-05,1.56E-06,3.92E-05,-0.3742963,1.102807,0,1,1,0,0,0,0,0,0,0,0,0,0,0
137,68,0,0,0,0,-0.1845188,-0.2012267,9.887616,-0.01099009,0.3165735,0.05478793,1.61E-05,6.25E-08,3.72E-05,-1.165888,1.068886,0,1,1,0,0,0,0,0,0,0,0,0,0,0
138,68,0,0,0,0,-0.1810069,-0.06709719,9.887354,-0.0346674,-0.6782612,-0.06151628,1.61E-05,1.06E-06,3.83E-05,-0.3888125,1.048768,0,1,1,0,0,0,0,0,0,0,0,0,0,0
139,68,0,0,0,0,-0.1967047,-0.06874852,9.893778,-0.06850184,-0.7791247,-0.1014937,1.61E-05,6.25E-08,3.81E-05,-0.3981226,1.138958,0,1,1,0,0,0,0,0,0,0,0,0,0,0
140,68,0,0,0,0,-0.1849992,-0.2011964,9.884064,0.03310599,0.3316165,0.04124336,1.71E-05,5.63E-07,3.93E-05,-1.166131,1.072053,0,1,1,0,0,0,0,0,0,0,0,0,0,0
141,68,0,0,0,0,-0.2124322,-0.05650148,9.882542,-0.01295482,-0.697718,-0.000827777,1.76E-05,6.25E-08,3.83E-05,-0.3275737,1.231404,0,1,1,0,0,0,0,0,0,0,0,0,0,0
142,68,0,0,0,0,-0.2098879,-0.09256689,9.896513,0.009380276,-0.6799007,-0.1574122,1.66E-05,1.06E-06,3.91E-05,-0.5358996,1.214909,0,1,1,0,0,0,0,0,0,0,0,0,0,0
143,68,0,0,0,0,-0.2024066,-0.203536,9.906452,-0.0182082,0.324487,0.02963336,1.71E-05,1.56E-06,3.88E-05,-1.177022,1.170246,0,1,1,0,0,0,0,0,0,0,0,0,0,0
144,68,0,0,0,0,-0.2005925,-0.06038133,9.903284,0.03068785,-0.7418582,-0.0866133,1.56E-06,5.63E-07,3.71E-05,-0.3493339,1.160354,0,1,1,0,0,0,0,0,0,0,0,0,0,0
145,68,0,0,0,0,-0.1939434,-0.06104053,9.900352,0.05329901,-0.6714519,-0.07997298,1.66E-05,1.06E-06,3.76E-05,-0.3532521,1.122234,0,1,1,0,0,0,0,0,0,0,0,0,0,0
146,68,0,0,0,0,-0.1952914,-0.05733678,9.88676,0.05298496,-0.6995901,-0.03751329,1.76E-05,5.63E-07,3.89E-05,-0.3322746,1.131587,0,1,1,0,0,0,0,0,0,0,0,0,0,0
147,68,0,0,0,0,-0.1909833,-0.06227839,9.900949,0.117391,0.3346814,0.0111816,1.76E-05,5.63E-07,3.89E-05,-0.3603939,1.105042,0,1,1,0,0,0,0,0,0,0,0,0,0,0
148,68,0,0,0,0,-0.1869913,-0.05577506,9.906338,0.03456817,-0.7059134,0.001588155,1.71E-05,1.56E-06,3.79E-05,-0.3225856,1.081366,0,1,1,0,0,0,0,0,0,0,0,0,0,0
149,68,0,0,0,0,-0.197522,-0.05500767,9.900375,-0.01443085,0.3458381,0.09310636,1.66E-05,1.06E-06,3.81E-05,-0.318339,1.142937,0,1,1,0,0,0,0,0,0,0,0,0,0,0
150,68,0,0,0,0,-0.2062848,-0.08002456,9.895432,0.02366766,-0.6986158,-0.01184238,1.76E-05,6.25E-08,3.91E-05,-0.4633421,1.194202,0,1,1,0,0,0,0,0,0,0,0,0,0,0
151,68,0,0,0,0,-0.202018,-0.08125381,9.892485,0.03319706,0.3459791,0.07359272,1.61E-05,5.63E-07,3.89E-05,-0.4705993,1.169856,0,1,1,0,0,0,0,0,0,0,0,0,0,0
152,68,0,0,0,0,-0.2030403,-0.205048,9.77921,0.03821499,-0.7248777,-0.123437,1.71E-05,6.25E-08,3.76E-05,-1.201187,1.189168,0,1,1,0,0,0,0,0,0,0,0,0,0,0
153,68,0,0,0,0,-0.1897599,-0.07918596,9.918594,0.01282962,-0.6806617,0.00279945,1.61E-05,1.06E-06,3.76E-05,-0.4574161,1.095999,0,1,1,0,0,0,0,0,0,0,0,0,0,0
154,68,0,0,0,0,-0.2037237,-0.06157386,9.907995,0.04213593,-0.6849957,-0.03857956,1.66E-05,5.63E-07,3.74E-05,-0.3560636,1.177901,0,1,1,0,0,0,0,0,0,0,0,0,0,0
155,68,0,0,0,0,-0.1874146,-0.0551343,9.901014,0.05253635,-0.7555293,-0.0902356,1.56E-06,1.06E-06,3.87E-05,-0.3190511,1.084396,0,1,1,0,0,0,0,0,0,0,0,0,0,0
156,68,0,0,0,0,-0.1942597,-0.2029502,9.894068,0.008883847,-0.7178772,-0.04348733,1.61E-05,6.25E-08,3.86E-05,-1.175104,1.124562,0,1,1,0,0,0,0,0,0,0,0,0,0,0
157,68,0,0,0,0,-0.2036653,-0.06263392,9.887868,0.01515097,0.359448,-0.03404659,1.56E-06,1.06E-06,3.89E-05,-0.3629307,1.179959,0,1,1,0,0,0,0,0,0,0,0,0,0,0
158,68,0,0,0,0,-0.1916337,-0.06634903,9.88435,-0.003495782,0.3423621,0.1070034,1.71E-05,6.25E-08,3.68E-05,-0.3845941,1.110663,0,1,1,0,0,0,0,0,0,0,0,0,0,0
159,68,0,0,0,0,-0.1810848,-0.09120079,9.908494,0.01095647,0.314252,0.05637547,1.66E-05,1.06E-06,3.87E-05,-0.5273529,1.04696,0,1,1,0,0,0,0,0,0,0,0,0,0,0
160,68,0,0,0,0,-0.1890534,-0.07352692,9.878396,0.03332898,0.3453921,-0.03356571,1.61E-05,1.56E-06,3.87E-05,-0.4264563,1.096367,0,1,1,0,0,0,0,0,0,0,0,0,0,0
161,68,0,0,0,0,-0.2099673,-0.06370242,9.880138,-0.0582465,0.351983,0.04039562,1.61E-05,1.06E-06,3.84E-05,-0.3694108,1.21741,0,1,1,0,0,0,0,0,0,0,0,0,0,0
162,68,0,0,0,0,-0.1876513,-0.2009687,9.855648,-0.03622375,0.3542918,0.01577678,1.76E-05,6.25E-08,3.92E-05,-1.168169,1.090552,0,1,1,0,0,0,0,0,0,0,0,0,0,0
163,68,0,0,0,0,-0.1801186,-0.07303631,9.878441,0.005112439,-0.7391128,-0.1107707,1.06E-06,6.25E-08,3.77E-05,-0.423609,1.044559,0,1,1,0,0,0,0,0,0,0,0,0,0,0
164,68,0,0,0,0,-0.1888272,-0.06761762,9.88968,-0.04700253,0.392288,0.1284782,1.76E-05,1.56E-06,3.83E-05,-0.3917361,1.093811,0,1,1,0,0,0,0,0,0,0,0,0,0,0
165,68,0,0,0,0,-0.2008504,-0.2033511,9.876873,-0.02366793,-0.6773378,-0.06620485,1.71E-05,1.06E-06,3.79E-05,-1.179474,1.164727,0,1,1,0,0,0,0,0,0,0,0,0,0,0
166,68,0,0,0,0,-0.1909302,-0.05718993,9.770796,0.03461966,-0.6986166,0.01395242,1.61E-05,1.56E-06,3.69E-05,-0.3353569,1.11945,0,1,1,0,0,0,0,0,0,0,0,0,0,0
167,68,0,0,0,0,-0.204908,-0.07101632,9.889581,-0.03278013,0.3345284,0.04363502,1.61E-05,1.06E-06,3.82E-05,-0.4114295,1.186944,0,1,1,0,0,0,0,0,0,0,0,0,0,0
168,68,0,0,0,0,-0.1966096,-0.06753141,9.890827,-0.02732161,-0.6742475,-0.05020395,1.66E-05,1.56E-06,3.72E-05,-0.3911912,1.138747,0,1,1,0,0,0,0,0,0,0,0,0,0,0
169,68,0,0,0,0,-0.1928926,-0.2066501,9.907068,0.005622598,-0.6882755,-0.1428107,1.71E-05,1.06E-06,3.88E-05,-1.194951,1.115177,0,1,1,0,0,0,0,0,0,0,0,0,0,0
170,68,0,0,0,0,-0.1901008,-0.06043113,9.89209,0.03442665,-0.7307014,-0.06645444,1.71E-05,1.06E-06,3.76E-05,-0.3500176,1.100923,0,1,1,0,0,0,0,0,0,0,0,0,0,0
171,68,0,0,0,0,-0.3239706,-0.06656164,9.88668,-0.006862975,0.3667559,0.05293863,1.61E-05,1.56E-06,3.82E-05,-0.3857355,1.876777,0,1,1,0,0,0,0,0,0,0,0,0,0,0
172,68,0,0,0,0,-0.2020136,-0.06148457,9.892026,-0.0182201,0.3242559,0.03725421,1.76E-05,6.25E-08,3.89E-05,-0.3561213,1.169902,0,1,1,0,0,0,0,0,0,0,0,0,0,0
173,68,0,0,0,0,-0.1889474,-0.06105221,9.893274,-0.02209562,0.3104422,0.1047352,1.61E-05,1.56E-06,3.84E-05,-0.3535725,1.094114,0,1,1,0,0,0,0,0,0,0,0,0,0,0
174,68,0,0,0,0,-0.1987553,-0.07596806,9.902003,0.1298349,-0.7022718,-0.02173093,1.61E-05,5.63E-07,3.83E-05,-0.439564,1.149866,0,1,1,0,0,0,0,0,0,0,0,0,0,0
175,68,0,0,0,0,-0.190977,-0.07066371,9.900893,0.07496812,-0.7043471,-0.08211729,1.61E-05,1.06E-06,3.87E-05,-0.408919,1.105006,0,1,1,0,0,0,0,0,0,0,0,0,0,0
176,68,0,0,0,0,-0.1891388,-0.06216221,9.880839,-0.003463976,0.3366826,0.0412932,1.61E-05,1.56E-06,3.71E-05,-0.3604537,1.096599,0,1,1,0,0,0,0,0,0,0,0,0,0,0
177,68,0,0,0,0,-0.1894543,-0.2049235,9.911239,0.05876262,0.3367455,0.05871288,1.61E-05,1.56E-06,3.92E-05,-1.184472,1.094847,0,1,1,0,0,0,0,0,0,0,0,0,0,0
178,68,0,0,0,0,-0.195935,-0.0700454,9.906791,-0.009295992,-0.716451,-0.1334739,1.66E-05,1.56E-06,3.93E-05,-0.4050998,1.133011,0,1,1,0,0,0,0,0,0,0,0,0,0,0
179,68,0,0,0,0,-0.200428,-0.07472543,9.898454,0.01096734,0.3176115,0.0720837,1.61E-05,1.56E-06,3.66E-05,-0.4325292,1.159957,0,1,1,0,0,0,0,0,0,0,0,0,0,0
180,68,0,0,0,0,-0.214959,-0.06955393,9.868832,-0.05365258,-0.7585925,-0.1117635,1.76E-05,1.56E-06,3.86E-05,-0.4038047,1.247766,0,1,1,0,0,0,0,0,0,0,0,0,0,0
181,68,0,0,0,0,-0.1838947,-0.05985446,9.88443,-0.001624121,-0.6840681,-0.1722422,1.76E-05,5.63E-07,3.91E-05,-0.3469462,1.065816,0,1,1,0,0,0,0,0,0,0,0,0,0,0
182,68,0,0,0,0,-0.1887719,-0.06461134,9.887925,0.09310448,-0.7192117,-0.05496342,1.66E-05,1.56E-06,3.87E-05,-0.3743863,1.093686,0,1,1,0,0,0,0,0,0,0,0,0,0,0
183,68,0,0,0,0,-0.1954446,-0.05796647,9.891489,0.09370182,-0.6603844,-0.09750176,1.71E-05,1.56E-06,3.79E-05,-0.335763,1.131933,0,1,1,0,0,0,0,0,0,0,0,0,0,0
184,68,0,0,0,0,-0.1905549,-0.1980487,9.871632,0.000756037,0.4138575,0.161299,1.76E-05,1.56E-06,3.74E-05,-1.149337,1.105637,0,1,1,0,0,0,0,0,0,0,0,0,0,0
185,68,0,0,0,0,-0.193037,-0.06565157,9.872512,-0.06033308,-0.6741201,-0.00518824,1.76E-05,1.56E-06,3.87E-05,-0.3810076,1.120136,0,1,1,0,0,0,0,0,0,0,0,0,0,0
186,68,0,0,0,0,-0.2035403,-0.20351,9.904672,0.08083789,0.3432226,0.02312917,1.66E-05,6.25E-08,3.91E-05,-1.177083,1.17701,0,1,1,0,0,0,0,0,0,0,0,0,0,0
187,68,0,0,0,0,-0.1906615,-0.05575093,9.90928,0.02200846,0.3193436,0.04072208,1.76E-05,1.56E-06,3.86E-05,-0.3223503,1.102257,0,1,1,0,0,0,0,0,0,0,0,0,0,0
188,68,0,0,0,0,-0.1811692,-0.05574786,9.892163,-0.1044626,-0.7150003,-0.151603,1.76E-05,1.56E-06,3.86E-05,-0.3228902,1.049205,0,1,1,0,0,0,0,0,0,0,0,0,0,0
189,68,0,0,0,0,-0.1939439,-0.06044158,9.900356,-0.01476378,0.3204819,0.1703264,1.06E-06,1.56E-06,3.78E-05,-0.3497858,1.122236,0,1,1,0,0,0,0,0,0,0,0,0,0,0
190,68,0,0,0,0,-0.1920138,-0.07181643,9.896146,-0.03484875,-0.6912281,-0.01338014,1.61E-05,6.25E-08,3.88E-05,-0.4157887,1.111535,0,1,1,0,0,0,0,0,0,0,0,0,0,0
191,68,0,0,0,0,-0.3258718,-0.06788725,9.908557,-0.01662005,-0.7137455,-0.1133699,1.61E-05,6.25E-08,3.83E-05,-0.3925488,1.883616,0,1,1,0,0,0,0,0,0,0,0,0,0,0
192,68,0,0,0,0,-0.2024311,-0.1966987,9.8704,-0.001976965,-0.7035138,-0.03693276,1.61E-05,1.56E-06,3.91E-05,-1.141647,1.174676,0,1,1,0,0,0,0,0,0,0,0,0,0,0
193,68,0,0,0,0,-0.2040136,-0.05958199,9.880194,0.05585273,0.4266953,0.1197367,1.61E-05,1.06E-06,3.86E-05,-0.345515,1.182896,0,1,1,0,0,0,0,0,0,0,0,0,0,0
194,68,0,0,0,0,-0.1978108,-0.05434003,9.89091,0.03810195,-0.7270726,-0.05103898,1.66E-05,1.56E-06,3.83E-05,-0.3147762,1.145703,0,1,1,0,0,0,0,0,0,0,0,0,0,0
195,68,0,0,0,0,-0.1968267,-0.0597873,9.897388,-0.02367982,-0.6775689,-0.05858401,1.71E-05,6.25E-08,3.83E-05,-0.3461033,1.139255,0,1,1,0,0,0,0,0,0,0,0,0,0,0
196,68,0,0,0,0,-0.1950573,-0.06208229,9.879628,0.1220929,-0.7580564,-0.09673038,1.61E-05,1.56E-06,3.92E-05,-0.3600345,1.131043,0,1,1,0,0,0,0,0,0,0,0,0,0,0
197,68,0,0,0,0,-0.1758878,-0.07739432,9.895001,0.02383607,-0.6827514,-0.02902859,1.71E-05,1.06E-06,3.84E-05,-0.4481331,1.018318,0,1,1,0,0,0,0,0,0,0,0,0,0,0
198,68,0,0,0,0,-0.1851934,-0.07051787,9.869557,-0.02022923,-0.7003453,-0.05786518,1.61E-05,6.25E-08,3.79E-05,-0.4093707,1.074951,0,1,1,0,0,0,0,0,0,0,0,0,0,0
199,68,0,0,0,0,-0.1927261,-0.07003541,9.899705,-0.001853058,-0.6979592,-0.09362271,1.71E-05,1.56E-06,3.73E-05,-0.4053319,1.115258,0,1,1,0,0,0,0,0,0,0,0,0,0,0
200,68,0,0,0,0,-0.1831561,-0.1989371,9.900657,-0.06148807,0.3945611,0.01914673,1.66E-05,6.25E-08,3.76E-05,-1.151108,1.059602,0,1,1,0,0,0,0,0,0,0,0,0,0,0
201,68,0,0,0,0,-0.2060796,-0.0717233,9.907324,0.04567268,-0.6966535,-0.02503005,1.61E-05,6.25E-08,3.82E-05,-0.4147811,1.191591,0,1,1,0,0,0,0,0,0,0,0,0,0,0
202,68,0,0,0,0,-0.2014749,-0.0625749,9.875452,-0.07681591,0.3363989,0.1319101,1.61E-05,1.56E-06,3.74E-05,-0.3630446,1.168739,0,1,1,0,0,0,0,0,0,0,0,0,0,0
203,68,0,0,0,0,-0.184925,-0.06951882,9.89797,-0.04595314,-0.7193749,-0.1229258,1.61E-05,6.25E-08,3.82E-05,-0.4024128,1.070313,0,1,1,0,0,0,0,0,0,0,0,0,0,0
204,68,0,0,0,0,-0.2248257,-0.05705202,9.897274,-0.05321484,-0.706013,-0.07474926,1.66E-05,1.56E-06,3.84E-05,-0.3302732,1.301281,0,1,1,0,0,0,0,0,0,0,0,0,0,0
205,68,0,0,0,0,-0.1892239,-0.2047511,9.885795,0.01237712,-0.7429736,-0.09277051,1.71E-05,6.25E-08,3.73E-05,-1.18652,1.096329,0,1,1,0,0,0,0,0,0,0,0,0,0,0
206,68,0,0,0,0,-0.1776798,-0.07078419,9.895038,0.02568983,0.323088,0.05232714,1.61E-05,6.25E-08,3.84E-05,-0.4098586,1.028692,0,1,1,0,0,0,0,0,0,0,0,0,0,0
207,68,0,0,0,0,-0.1773397,-0.06340129,9.866093,0.02578296,0.3311935,0.03801841,1.76E-05,6.25E-08,3.79E-05,-0.368188,1.02974,0,1,1,0,0,0,0,0,0,0,0,0,0,0
208,68,0,0,0,0,-0.1941368,-0.0596284,9.869589,0.03297716,0.3228179,0.07841468,1.71E-05,6.25E-08,3.88E-05,-0.3461556,1.126854,0,1,1,0,0,0,0,0,0,0,0,0,0,0
209,68,0,0,0,0,-0.1899865,-0.05921017,9.888548,0.04587187,-0.6833401,-0.08459742,1.66E-05,1.56E-06,3.81E-05,-0.3430688,1.100656,0,1,1,0,0,0,0,0,0,0,0,0,0,0
210,68,0,0,0,0,-0.1785219,-0.0754922,9.88435,-0.01437833,0.3500063,0.08214154,1.66E-05,6.25E-08,3.68E-05,-0.4375908,1.03468,0,1,1,0,0,0,0,0,0,0,0,0,0,0
211,68,0,0,0,0,-0.1993448,-0.0585874,9.901526,0.04826519,0.3928011,0.08183,1.71E-05,1.56E-06,3.72E-05,-0.3390156,1.153345,0,1,1,0,0,0,0,0,0,0,0,0,0,0
212,68,0,0,0,0,-0.1914769,-0.07051095,9.879588,-0.005292788,-0.6718232,-0.07863331,5.63E-07,5.63E-07,3.88E-05,-0.408915,1.110285,0,1,1,0,0,0,0,0,0,0,0,0,0,0
213,68,0,0,0,0,-0.2021552,-0.2057555,9.880401,-0.07492366,-0.6801836,-0.09259011,1.66E-05,1.06E-06,3.87E-05,-1.19299,1.171867,0,1,1,0,0,0,0,0,0,0,0,0,0,0
214,68,0,0,0,0,-0.19509,-0.06975003,9.862415,-0.08595574,-0.6911858,-0.1350261,1.66E-05,6.25E-08,3.79E-05,-0.4052066,1.133201,0,1,1,0,0,0,0,0,0,0,0,0,0,0
215,68,0,0,0,0,-0.2026471,-0.06221031,9.911547,0.0222501,0.3492241,0.06731655,1.06E-06,1.06E-06,3.76E-05,-0.3596151,1.171258,0,1,1,0,0,0,0,0,0,0,0,0,0,0
216,68,0,0,0,0,-0.1891552,-0.06679866,9.771332,0.01654176,-0.6794682,-0.02797666,1.66E-05,6.25E-08,3.84E-05,-0.3916786,1.108978,0,1,1,0,0,0,0,0,0,0,0,0,0,0
217,68,0,0,0,0,-0.1806552,-0.2030092,9.878746,0.1040525,-0.7255852,-0.07201625,1.71E-05,6.25E-08,3.82E-05,-1.177268,1.047445,0,1,1,0,0,0,0,0,0,0,0,0,0,0
218,68,0,0,0,0,-0.1985548,-0.06155096,9.895593,-0.02364802,-0.6832484,-0.1242943,1.66E-05,1.06E-06,3.78E-05,-0.3563773,1.149462,0,1,1,0,0,0,0,0,0,0,0,0,0,0
219,68,0,0,0,0,-0.2038339,-0.06853168,9.874808,0.01300009,-0.6710544,-0.0610448,1.61E-05,1.56E-06,3.84E-05,-0.3976293,1.182492,0,1,1,0,0,0,0,0,0,0,0,0,0,0
220,68,0,0,0,0,-0.1948232,-0.0664815,9.909187,0.02394213,-0.6775434,-0.07428724,1.71E-05,1.06E-06,3.73E-05,-0.384396,1.126314,0,1,1,0,0,0,0,0,0,0,0,0,0,0
221,68,0,0,0,0,-0.1979242,-0.08251765,9.894862,0.02733633,-0.7108608,-0.1054513,1.71E-05,5.63E-07,3.91E-05,-0.4778039,1.145879,0,1,1,0,0,0,0,0,0,0,0,0,0,0
222,68,0,0,0,0,-0.1926452,-0.0754106,9.897303,0.04021702,0.3216236,0.1349856,1.71E-05,6.25E-08,3.86E-05,-0.4365457,1.115056,0,1,1,0,0,0,0,0,0,0,0,0,0,0
223,68,0,0,0,0,-0.1800732,-0.08213922,9.895541,-0.0128824,-0.6994602,-0.06988193,1.66E-05,5.63E-07,3.78E-05,-0.4755801,1.042484,0,1,1,0,0,0,0,0,0,0,0,0,0,0
224,68,0,0,0,0,-0.1942652,-0.06791428,9.85533,0.01640721,-0.7072693,-0.1231587,1.71E-05,1.56E-06,3.82E-05,-0.394826,1.129224,0,1,1,0,0,0,0,0,0,0,0,0,0,0
225,68,0,0,0,0,-0.2042787,-0.1929685,9.853848,0.0383596,-0.7094753,-0.1253816,1.66E-05,1.06E-06,3.89E-05,-1.121884,1.187393,0,1,1,0,0,0,0,0,0,0,0,0,0,0
226,68,0,0,0,0,-0.1825074,-0.06474842,9.896831,0.01873611,0.3644726,0.0618543,1.71E-05,1.56E-06,3.62E-05,-0.3748431,1.056449,0,1,1,0,0,0,0,0,0,0,0,0,0,0
227,68,0,0,0,0,-0.191266,-0.06986974,9.873084,-0.02554416,0.3269615,0.05735829,1.66E-05,5.63E-07,3.82E-05,-0.4054634,1.109794,0,1,1,0,0,0,0,0,0,0,0,0,0,0
228,68,0,0,0,0,-0.1853206,-0.05449555,9.891561,-0.007158156,0.3358358,0.06063801,1.66E-05,6.25E-08,3.72E-05,-0.3156563,1.073307,0,1,1,0,0,0,0,0,0,0,0,0,0,0
229,68,0,0,0,0,-0.1855656,-0.06100764,9.880863,-0.07479872,-0.6777576,-0.1726091,1.61E-05,1.56E-06,3.87E-05,-0.3537582,1.075885,0,1,1,0,0,0,0,0,0,0,0,0,0,0
230,68,0,0,0,0,-0.193035,-0.0681737,9.89084,0.1216053,0.3928538,-0.001166027,1.61E-05,1.56E-06,3.82E-05,-0.3949112,1.118047,0,1,1,0,0,0,0,0,0,0,0,0,0,0
231,68,0,0,0,0,-0.1868241,-0.07405917,9.864792,0.06585775,0.3201489,0.1172283,1.06E-06,6.25E-08,3.83E-05,-0.4301356,1.084935,0,1,1,0,0,0,0,0,0,0,0,0,0,0
232,68,0,0,0,0,-0.1984232,-0.05780403,9.873132,-0.003681013,0.3230226,0.1122918,1.71E-05,5.63E-07,3.83E-05,-0.3354447,1.151315,0,1,1,0,0,0,0,0,0,0,0,0,0,0
233,68,0,0,0,0,-0.1953726,-0.2051899,9.873336,-0.1233895,-0.7721609,-0.08046161,1.66E-05,6.25E-08,3.71E-05,-1.190563,1.133371,0,1,1,0,0,0,0,0,0,0,0,0,0,0
234,68,0,0,0,0,-0.1844341,-0.05803885,9.882665,-0.02372639,-0.6816217,-0.05142964,1.66E-05,1.06E-06,3.86E-05,-0.3364824,1.069133,0,1,1,0,0,0,0,0,0,0,0,0,0,0
235,68,0,0,0,0,-0.1852165,-0.06525747,9.88853,-0.04578678,-0.6972534,-0.09345388,1.71E-05,6.25E-08,3.73E-05,-0.3781071,1.073026,0,1,1,0,0,0,0,0,0,0,0,0,0,0
236,68,0,0,0,0,-0.1796305,-0.08324876,9.881926,0.02326356,-0.7442452,-0.02506102,1.61E-05,6.25E-08,3.76E-05,-0.482668,1.041353,0,1,1,0,0,0,0,0,0,0,0,0,0,0
237,68,0,0,0,0,-0.2012067,-0.06144954,9.885521,0.01519936,0.3761305,0.04830479,1.56E-06,6.25E-08,3.78E-05,-0.3561526,1.165996,0,1,1,0,0,0,0,0,0,0,0,0,0,0
238,68,0,0,0,0,-0.1944821,-0.0602965,9.880235,-0.03661698,0.3120221,0.01826626,1.56E-06,6.25E-08,3.96E-05,-0.3496569,1.127641,0,1,1,0,0,0,0,0,0,0,0,0,0,0
239,68,0,0,0,0,-0.2015785,-0.07817069,9.878897,0.07900805,-0.6621546,-0.07346825,1.66E-05,1.06E-06,3.83E-05,-0.4533661,1.168919,0,1,1,0,0,0,0,0,0,0,0,0,0,0
240,68,0,0,0,0,-0.2168285,-0.06188759,9.889586,-0.06770942,-0.6944697,-0.1102831,1.66E-05,5.63E-07,3.87E-05,-0.358544,1.25598,0,1,1,0,0,0,0,0,0,0,0,0,0,0
241,68,0,0,0,0,-0.1877109,-0.07004324,9.892036,-0.009444726,-0.7193391,-0.03821324,1.76E-05,1.56E-06,3.89E-05,-0.4056915,1.087085,0,1,1,0,0,0,0,0,0,0,0,0,0,0
242,68,0,0,0,0,-0.3226655,-0.06462985,9.864804,0.02566603,0.3226259,0.06756883,1.61E-05,6.25E-08,3.86E-05,-0.3753713,1.873366,0,1,1,0,0,0,0,0,0,0,0,0,0,0
243,68,0,0,0,0,-0.1909795,-0.06754263,9.882569,0.07468198,-0.7445374,-0.1482154,1.66E-05,1.06E-06,3.78E-05,-0.3915831,1.10707,0,1,1,0,0,0,0,0,0,0,0,0,0,0
244,68,0,0,0,0,-0.1906032,-0.05681098,9.889153,-0.005361091,-0.6825951,-0.1028953,1.61E-05,6.25E-08,3.74E-05,-0.3291478,1.104162,0,1,1,0,0,0,0,0,0,0,0,0,0,0
245,68,0,0,0,0,-0.2071782,-0.06737066,9.886045,0.03101174,-0.7072319,-0.0900358,1.71E-05,1.06E-06,3.79E-05,-0.3904488,1.200523,0,1,1,0,0,0,0,0,0,0,0,0,0,0
246,68,0,0,0,0,-0.1887036,-0.07884832,9.86771,-0.01998656,-0.6735935,-0.0545998,1.71E-05,6.25E-08,3.73E-05,-0.4578145,1.095518,0,1,1,0,0,0,0,0,0,0,0,0,0,0
247,68,0,0,0,0,-0.1915709,-0.07305229,9.900874,-0.01808739,0.3394272,0.0429306,1.61E-05,6.25E-08,3.81E-05,-0.4227417,1.108441,0,1,1,0,0,0,0,0,0,0,0,0,0,0
248,68,0,0,0,0,-0.1903768,-0.07666045,9.900855,0.02400861,-0.6794012,-0.1395309,1.76E-05,6.25E-08,3.84E-05,-0.4436215,1.101533,0,1,1,0,0,0,0,0,0,0,0,0,0,0
249,68,0,0,0,0,-0.181176,-0.07239602,9.874298,0.0293077,0.3193045,0.05918878,1.66E-05,5.63E-07,3.79E-05,-0.4200716,1.05113,0,1,1,0,0,0,0,0,0,0,0,0,0,0
250,68,0,0,0,0,-0.2033216,-0.05969632,9.895582,0.02571854,0.3267941,0.05660401,1.71E-05,-1.49E-05,3.89E-05,-0.3456397,1.177053,0,1,1,0,0,0,0,0,0,0,0,0,0,0
251,68,0,0,0,0,-0.1791955,-0.07382981,9.905069,0.009226622,-0.6860329,-0.08167014,1.76E-05,6.25E-08,3.97E-05,-0.42706,1.036413,0,1,1,0,0,0,0,0,0,0,0,0,0,0
252,68,0,0,0,0,-0.1965372,-0.06152653,9.888501,0.01662505,-0.6778509,-0.08132264,1.66E-05,1.06E-06,3.87E-05,-0.3564914,1.138601,0,1,1,0,0,0,0,0,0,0,0,0,0,0
253,68,0,0,0,0,-0.1990725,-0.0631989,9.874867,0.03334659,0.3646255,0.09116683,1.71E-05,1.56E-06,3.83E-05,-0.3666865,1.154875,0,1,1,0,0,0,0,0,0,0,0,0,0,0
254,68,0,0,0,0,-0.2127583,-0.05716575,9.892596,0.0441669,0.3463249,0.08795623,1.71E-05,1.56E-06,3.86E-05,-0.331088,1.23204,0,1,1,0,0,0,0,0,0,0,0,0,0,0
255,68,0,0,0,0,-0.1970132,-0.06748576,9.884908,-0.01097224,0.31692,0.04335663,1.71E-05,6.25E-08,3.82E-05,-0.3911609,1.141767,0,1,1,0,0,0,0,0,0,0,0,0,0,0
256,68,0,0,0,0,-0.198638,-0.07881344,9.88009,-0.02165869,0.3472635,0.02891453,1.76E-05,1.56E-06,3.74E-05,-0.4570385,1.151733,0,1,1,0,0,0,0,0,0,0,0,0,0,0
257,68,0,0,0,0,-0.3235185,-0.0544904,9.872561,0.009317693,-0.6716703,-0.04932077,1.66E-05,6.25E-08,3.82E-05,-0.3162338,1.876852,0,1,1,0,0,0,0,0,0,0,0,0,0,0
258,68,0,0,0,0,-0.2029828,-0.2039975,9.88751,-0.06801262,-0.7192483,-0.05211526,1.61E-05,1.56E-06,3.93E-05,-1.18195,1.175822,0,1,1,0,0,0,0,0,0,0,0,0,0,0
259,68,0,0,0,0,-0.2007213,-0.06806827,9.889029,-0.0289363,0.3540217,0.04186425,1.66E-05,1.06E-06,3.76E-05,-0.3943728,1.162767,0,1,1,0,0,0,0,0,0,0,0,0,0,0
260,68,0,0,0,0,-0.1975977,-0.05669358,9.884386,-0.003366956,0.3511608,0.06983212,1.76E-05,5.63E-07,3.91E-05,-0.3286261,1.145223,0,1,1,0,0,0,0,0,0,0,0,0,0,0
261,68,0,0,0,0,-0.1899208,-0.06997977,9.8867,-0.01657555,-0.7034357,-0.07386614,1.71E-05,5.63E-07,3.86E-05,-0.4055427,1.100473,0,1,1,0,0,0,0,0,0,0,0,0,0,0
262,68,0,0,0,0,-0.1790097,-0.06540608,9.89921,-0.05290182,-0.6747462,-0.09388,1.71E-05,6.25E-08,3.96E-05,-0.3785593,1.035957,0,1,1,0,0,0,0,0,0,0,0,0,0,0
263,68,0,0,0,0,-0.2010398,-0.2069832,9.882765,0.007753455,0.3670244,0.07844071,1.71E-05,1.56E-06,3.91E-05,-1.199819,1.165121,0,1,1,0,0,0,0,0,0,0,0,0,0,0
264,68,0,0,0,0,-0.1817885,-0.2035822,9.876962,-0.005999046,-0.7453597,-0.05701303,1.76E-05,1.06E-06,3.74E-05,-1.180803,1.054203,0,1,1,0,0,0,0,0,0,0,0,0,0,0
265,68,0,0,0,0,-0.1967354,-0.2071332,9.896987,-0.07136208,-0.694508,-0.1176113,1.56E-06,6.25E-08,3.88E-05,-1.198964,1.138544,0,1,1,0,0,0,0,0,0,0,0,0,0,0
266,68,0,0,0,0,-0.1775499,-0.06476778,9.890936,-0.009114879,-0.6845973,-0.04544619,1.61E-05,1.06E-06,3.96E-05,-0.3751786,1.028371,0,1,1,0,0,0,0,0,0,0,0,0,0,0
267,68,0,0,0,0,-0.1957724,-0.08199369,9.901978,0.05854662,0.3199569,0.1063825,1.76E-05,6.25E-08,3.84E-05,-0.474429,1.132611,0,1,1,0,0,0,0,0,0,0,0,0,0,0
268,68,0,0,0,0,-0.2167405,-0.2045682,9.90756,-0.01402469,0.3852103,0.05966689,1.56E-06,1.06E-06,3.82E-05,-1.182857,1.252952,0,1,1,0,0,0,0,0,0,0,0,0,0,0
269,68,0,0,0,0,-0.177033,-0.06226824,9.874978,0.02561946,0.3185731,0.07472319,1.66E-05,6.25E-08,3.86E-05,-0.3612829,1.027036,0,1,1,0,0,0,0,0,0,0,0,0,0,0
270,68,0,0,0,0,-0.1908535,-0.05613565,9.878505,0.0457213,-0.6988579,-0.07884251,1.66E-05,5.63E-07,3.77E-05,-0.3255859,1.106804,0,1,1,0,0,0,0,0,0,0,0,0,0,0
271,68,0,0,0,0,-0.1894279,-0.06102193,9.889722,0.01307949,-0.6758097,-0.1572384,1.71E-05,5.63E-07,3.69E-05,-0.3535241,1.097289,0,1,1,0,0,0,0,0,0,0,0,0,0,0
272,68,0,0,0,0,-0.1875861,-0.05696574,9.906327,-0.02057589,-0.7385623,-0.06253,1.61E-05,6.25E-08,3.81E-05,-0.3294723,1.084805,0,1,1,0,0,0,0,0,0,0,0,0,0,0
273,68,0,0,0,0,-0.2174675,-0.05529958,9.890811,0.01870534,0.3670236,0.1042355,1.61E-05,1.56E-06,3.76E-05,-0.3203377,1.25953,0,1,1,0,0,0,0,0,0,0,0,0,0,0
274,68,0,0,0,0,-0.2060415,-0.07146297,9.869452,0.06982446,0.3483253,0.08209669,1.76E-05,1.56E-06,3.78E-05,-0.4148614,1.195941,0,1,1,0,0,0,0,0,0,0,0,0,0,0
275,68,0,0,0,0,-0.1967616,-0.06983162,9.8772,-0.02207983,0.3170459,0.139962,1.56E-06,6.25E-08,3.82E-05,-0.4050734,1.141198,0,1,1,0,0,0,0,0,0,0,0,0,0,0
276,68,0,0,0,0,-0.1925866,-0.2047918,9.897614,-0.009138676,-0.6850594,-0.0302045,1.71E-05,-1.44E-05,3.73E-05,-1.18534,1.114475,0,1,1,0,0,0,0,0,0,0,0,0,0,0
277,68,0,0,0,0,-0.2125274,-0.05771859,9.885492,0.05135722,0.3315766,0.08550485,1.61E-05,1.06E-06,3.78E-05,-0.3345301,1.231587,0,1,1,0,0,0,0,0,0,0,0,0,0,0
278,68,0,0,0,0,-0.2017164,-0.2016008,9.885165,0.0111774,0.3342846,0.0282245,1.66E-05,1.56E-06,3.79E-05,-1.168344,1.168771,0,1,1,0,0,0,0,0,0,0,0,0,0,0
279,68,0,0,0,0,-0.1845444,-0.06465037,9.886169,-0.02161212,0.3513162,0.02176016,1.61E-05,1.56E-06,3.79E-05,-0.3746791,1.069389,0,1,1,0,0,0,0,0,0,0,0,0,0,0
280,68,0,0,0,0,-0.1959235,-0.1879279,9.890018,-0.07285801,0.3549586,0.03441216,1.56E-06,6.25E-08,3.93E-05,-1.08859,1.134689,0,1,1,0,0,0,0,0,0,0,0,0,0,0
281,68,0,0,0,0,-0.1878896,-0.06229145,9.897413,-0.03164367,-0.7502577,-0.08210342,1.71E-05,5.63E-07,3.86E-05,-0.3605982,1.087534,0,1,1,0,0,0,0,0,0,0,0,0,0,0
282,68,0,0,0,0,-0.1995503,-0.06641603,9.907982,0.02259985,0.3780554,0.001994196,1.66E-05,5.63E-07,3.62E-05,-0.3840642,1.153775,0,1,1,0,0,0,0,0,0,0,0,0,0,0
283,68,0,0,0,0,-0.1863219,-0.2054015,9.888171,-0.02023723,-0.6942037,-0.00739669,1.06E-06,1.56E-06,3.87E-05,-1.190003,1.079259,0,1,1,0,0,0,0,0,0,0,0,0,0,0
284,68,0,0,0,0,-0.2062913,-0.07151292,9.877144,-0.01634867,-0.6832874,-0.1058276,1.76E-05,5.63E-07,3.89E-05,-0.4148281,1.196458,0,1,1,0,0,0,0,0,0,0,0,0,0,0
285,68,0,0,0,0,-0.1936774,-0.05692041,9.910441,0.06604813,0.3238457,-0.004705322,1.61E-05,1.56E-06,3.78E-05,-0.3290735,1.119557,0,1,1,0,0,0,0,0,0,0,0,0,0,0
286,68,0,0,0,0,-0.2079151,-0.05840606,9.890244,-0.02367388,-0.6774534,-0.06239446,1.61E-05,1.06E-06,3.83E-05,-0.3383518,1.204288,0,1,1,0,0,0,0,0,0,0,0,0,0,0
287,68,0,0,0,0,-0.205529,-0.06275394,9.90857,-0.03272944,0.3260669,-0.05683548,1.76E-05,5.63E-07,3.91E-05,-0.3628664,1.188267,0,1,1,0,0,0,0,0,0,0,0,0,0,0
288,68,0,0,0,0,-0.2011365,-0.07820865,9.883633,-0.05493068,0.3202924,0.08209615,1.61E-05,1.06E-06,3.74E-05,-0.4533689,1.165798,0,1,1,0,0,0,0,0,0,0,0,0,0,0
289,68,0,0,0,0,-0.2094403,-0.07450614,9.882435,0.02338255,-0.7419347,-0.1012696,1.61E-05,1.06E-06,3.87E-05,-0.431959,1.214064,0,1,1,0,0,0,0,0,0,0,0,0,0,0
290,68,0,0,0,0,-0.2001904,-0.0585038,9.890871,-0.03825072,-0.670656,-0.06791143,1.71E-05,1.56E-06,3.93E-05,-0.3388965,1.159483,0,1,1,0,0,0,0,0,0,0,0,0,0,0
291,68,0,0,0,0,-0.2041591,-0.07039385,9.884854,0.01653375,-0.6733266,0.02249183,1.71E-05,5.63E-07,3.82E-05,-0.4080184,1.183174,0,1,1,0,0,0,0,0,0,0,0,0,0,0
292,68,0,0,0,0,-0.1902413,-0.2060263,9.8988,0.03837047,-0.7061157,-0.1096734,1.71E-05,6.25E-08,3.89E-05,-1.19234,1.100772,0,1,1,0,0,0,0,0,0,0,0,0,0,0
293,68,0,0,0,0,-0.1868435,-0.2017852,9.885826,-0.0694383,0.3347332,0.07751216,1.66E-05,1.06E-06,3.83E-05,-1.169334,1.082544,0,1,1,0,0,0,0,0,0,0,0,0,0,0
294,68,0,0,0,0,-0.2077224,-0.05909292,9.902667,0.03434541,-0.7385759,-0.05976656,1.71E-05,6.25E-08,3.89E-05,-0.3419013,1.201662,0,1,1,0,0,0,0,0,0,0,0,0,0,0
295,68,0,0,0,0,-0.1880205,-0.06710996,9.901523,0.06281857,0.3666548,-0.03357513,1.76E-05,-1.44E-05,3.89E-05,-0.38833,1.087837,0,1,1,0,0,0,0,0,0,0,0,0,0,0
296,68,0,0,0,0,-0.1886525,-0.06997885,9.884339,0.000483854,0.3676411,0.04092189,1.71E-05,1.56E-06,3.88E-05,-0.4056342,1.093387,0,1,1,0,0,0,0,0,0,0,0,0,0,0
297,68,0,0,0,0,-0.2014312,-0.1974768,9.894662,0.0147011,0.3255242,0.07272395,1.61E-05,1.56E-06,3.83E-05,-1.143353,1.166009,0,1,1,0,0,0,0,0,0,0,0,0,0,0
298,68,0,0,0,0,-0.2007316,-0.05429239,9.889122,0.01611489,-0.7286882,-0.04928263,1.61E-05,1.56E-06,3.72E-05,-0.3145571,1.162825,0,1,1,0,0,0,0,0,0,0,0,0,0,0
299,68,0,0,0,0,-0.1843606,-0.2071855,9.882842,0.009291035,-0.6816335,-0.1002558,1.61E-05,1.06E-06,3.78E-05,-1.200982,1.068472,0,1,1,0,0,0,0,0,0,0,0,0,0,0
300,68,0,0,0,0,-0.2015337,-0.06091589,9.895583,-0.04599272,-0.7264407,-0.1429109,1.71E-05,1.56E-06,3.84E-05,-0.3527007,1.166704,0,1,1,0,0,0,0,0,0,0,0,0,0,0
301,68,0,0,0,0,-0.2130275,-0.05709321,9.882535,-0.03104633,-0.6914304,-0.1246418,1.61E-05,1.06E-06,3.88E-05,-0.3310045,1.234853,0,1,1,0,0,0,0,0,0,0,0,0,0,0
302,68,0,0,0,0,-0.1955533,-0.06684747,9.876635,0.01111298,0.3298853,0.04681017,1.61E-05,6.25E-08,3.77E-05,-0.3877859,1.134259,0,1,1,0,0,0,0,0,0,0,0,0,0,0
303,68,0,0,0,0,-0.2005929,-0.05978239,9.903288,0.0110504,0.3381158,0.1549015,1.71E-05,6.25E-08,3.76E-05,-0.3458686,1.160357,0,1,1,0,0,0,0,0,0,0,0,0,0,0
304,68,0,0,0,0,-0.1854838,-0.06758074,9.878452,-0.02732755,-0.6743631,-0.0463935,1.76E-05,1.56E-06,3.81E-05,-0.3919674,1.075669,0,1,1,0,0,0,0,0,0,0,0,0,0,0
305,68,0,0,0,0,-0.2028109,-0.07457022,9.880098,0.02725326,-0.731365,-0.1882692,1.61E-05,1.06E-06,3.92E-05,-0.4324327,1.175925,0,1,1,0,0,0,0,0,0,0,0,0,0,0
306,68,0,0,0,0,-0.2014489,-0.07155533,9.8748,0.04569545,-0.6930629,-0.01694272,1.71E-05,6.25E-08,3.79E-05,-0.4151726,1.168659,0,1,1,0,0,0,0,0,0,0,0,0,0,0
307,68,0,0,0,0,-0.1778628,-0.05751551,9.882107,0.04520417,-0.7466822,-0.01966302,1.61E-05,1.06E-06,3.77E-05,-0.3334672,1.031107,0,1,1,0,0,0,0,0,0,0,0,0,0,0
308,68,0,0,0,0,-0.1816895,-0.207283,9.892323,-0.04733912,0.3416723,0.02668675,1.76E-05,6.25E-08,3.82E-05,-1.200396,1.051986,0,1,1,0,0,0,0,0,0,0,0,0,0,0
309,68,0,0,0,0,-0.188542,-0.06349365,9.899178,0.04065292,0.3615734,0.08249404,1.76E-05,6.25E-08,3.96E-05,-0.367492,1.091114,0,1,1,0,0,0,0,0,0,0,0,0,0,0
310,68,0,0,0,0,-0.1992318,-0.05556959,9.897997,0.01295455,-0.6782357,-0.07721946,1.76E-05,6.25E-08,3.83E-05,-0.3216681,1.153104,0,1,1,0,0,0,0,0,0,0,0,0,0,0
311,68,0,0,0,0,-0.1943703,-0.05560816,9.895061,0.003683778,0.3242543,0.08884382,1.61E-05,6.25E-08,3.82E-05,-0.3219869,1.125308,0,1,1,0,0,0,0,0,0,0,0,0,0,0
312,68,0,0,0,0,-0.2023542,-0.06861483,9.884283,0.07362276,0.3606374,0.06415132,1.71E-05,1.06E-06,3.82E-05,-0.3977301,1.172786,0,1,1,0,0,0,0,0,0,0,0,0,0,0
313,68,0,0,0,0,-0.1901385,-0.06151039,9.874921,-0.01310927,-0.7196084,-0.03792051,5.63E-07,1.06E-06,3.78E-05,-0.3568879,1.103055,0,1,1,0,0,0,0,0,0,0,0,0,0,0
314,68,0,0,0,0,-0.2055785,-0.07389289,9.873581,0.03674468,0.3376808,0.1028504,1.71E-05,6.25E-08,3.86E-05,-0.4287879,1.192754,0,1,1,0,0,0,0,0,0,0,0,0,0,0
315,68,0,0,0,0,-0.2150899,-0.2020946,9.893383,-0.007144197,0.3298097,0.006359124,1.71E-05,5.63E-07,3.83E-05,-1.170233,1.2452,0,1,1,0,0,0,0,0,0,0,0,0,0,0
316,68,0,0,0,0,-0.1947948,-0.2069978,9.873918,0.02944247,0.3282186,0.01820706,1.76E-05,1.06E-06,3.79E-05,-1.200979,1.129949,0,1,1,0,0,0,0,0,0,0,0,0,0,0
317,68,0,0,0,0,-0.2023013,-0.06214115,9.900897,0.01271578,-0.698615,-0.03763719,1.66E-05,1.06E-06,3.77E-05,-0.3596017,1.170517,0,1,1,0,0,0,0,0,0,0,0,0,0,0
318,68,0,0,0,0,-0.1908819,-0.06944659,9.897943,-0.02385522,-0.6904203,-0.01425832,1.61E-05,6.25E-08,3.78E-05,-0.4019958,1.104785,0,1,1,0,0,0,0,0,0,0,0,0,0,0
319,68,0,0,0,0,-0.1912936,-0.05861983,9.892097,-0.0585903,0.3232672,0.1019075,1.66E-05,1.06E-06,3.94E-05,-0.3395265,1.107829,0,1,1,0,0,0,0,0,0,0,0,0,0,0
320,68,0,0,0,0,-0.1903112,-0.06201759,9.861897,-0.01386714,0.3977152,0.02677251,1.76E-05,6.25E-08,3.74E-05,-0.3603059,1.105513,0,1,1,0,0,0,0,0,0,0,0,0,0,0
321,68,0,0,0,0,-0.2047724,-0.07265995,9.867084,0.07325332,0.3188297,0.05139911,1.61E-05,1.06E-06,3.88E-05,-0.4219113,1.188861,0,1,1,0,0,0,0,0,0,0,0,0,0,0
322,68,0,0,0,0,-0.1906769,-0.06101901,9.891491,0.008120027,0.3993308,0.02501614,1.76E-05,6.25E-08,3.92E-05,-0.3534439,1.104325,0,1,1,0,0,0,0,0,0,0,0,0,0,0
323,68,0,0,0,0,-0.1909879,-0.0819213,9.883064,0.0622924,0.3281007,0.09940187,1.71E-05,6.25E-08,3.91E-05,-0.4749172,1.107052,0,1,1,0,0,0,0,0,0,0,0,0,0,0
324,68,0,0,0,0,-0.2047066,-0.05779712,9.883162,0.05669104,-0.6985122,-0.06447893,1.61E-05,1.56E-06,3.88E-05,-0.3350642,1.186558,0,1,1,0,0,0,0,0,0,0,0,0,0,0
325,68,0,0,0,0,-0.203599,-0.2021973,9.888111,-0.03871431,-0.7174407,-0.04302578,6.25E-08,6.25E-08,3.74E-05,-1.171451,1.179323,0,1,1,0,0,0,0,0,0,0,0,0,0,0
326,68,0,0,0,0,-0.1889778,-0.07184102,9.894385,0.01153985,0.3791053,0.06811613,1.61E-05,1.56E-06,3.77E-05,-0.4160051,1.094159,0,1,1,0,0,0,0,0,0,0,0,0,0,0
327,68,0,0,0,0,-0.2014329,-0.06735883,9.874236,-0.05775522,0.4056023,0.04311598,1.66E-05,1.56E-06,3.74E-05,-0.3908471,1.168636,0,1,1,0,0,0,0,0,0,0,0,0,0,0
328,68,0,0,0,0,-0.222304,-0.06304353,9.893103,0.02972163,0.371422,0.1114447,1.61E-05,1.06E-06,3.88E-05,-0.3651109,1.287228,0,1,1,0,0,0,0,0,0,0,0,0,0,0
329,68,0,0,0,0,-0.1881762,-0.06461856,9.887928,0.03517066,-0.662729,-0.1575953,1.61E-05,1.06E-06,3.83E-05,-0.3744281,1.090235,0,1,1,0,0,0,0,0,0,0,0,0,0,0
330,68,0,0,0,0,-0.1837632,-0.05576123,9.898661,-0.03832989,-0.6847876,-0.1078817,1.71E-05,1.56E-06,3.82E-05,-0.3227557,1.063526,0,1,1,0,0,0,0,0,0,0,0,0,0,0
331,68,0,0,0,0,-0.1925097,-0.2047765,9.895247,0.03486644,-0.684379,-0.0760984,1.71E-05,1.06E-06,3.78E-05,-1.185534,1.114297,0,1,1,0,0,0,0,0,0,0,0,0,0,0
332,68,0,0,0,0,-0.1776057,-0.06717511,9.892695,0.05668715,-0.7048848,-0.1073266,1.66E-05,6.25E-08,3.67E-05,-0.3890539,1.028509,0,1,1,0,0,0,0,0,0,0,0,0,0,0
333,68,0,0,0,0,-0.2012485,-0.05679193,9.90508,-0.02512714,0.3696933,0.039627,1.61E-05,5.63E-07,3.77E-05,-0.3285084,1.163939,0,1,1,0,0,0,0,0,0,0,0,0,0,0
334,68,0,0,0,0,-0.3231134,-0.05680552,9.860121,0.01186272,0.4168603,0.08802265,1.61E-05,6.25E-08,3.89E-05,-0.3300853,1.876864,0,1,1,0,0,0,0,0,0,0,0,0,0,0
335,68,0,0,0,0,-0.1923475,-0.06264482,9.869577,-0.09516416,0.3219607,0.05910966,1.76E-05,6.25E-08,3.74E-05,-0.3636666,1.11647,0,1,1,0,0,0,0,0,0,0,0,0,0,0
336,68,0,0,0,0,-0.1976509,-0.06269462,9.886121,0.07690597,0.318868,0.05872729,1.66E-05,6.25E-08,3.87E-05,-0.3633466,1.145325,0,1,1,0,0,0,0,0,0,0,0,0,0,0
337,68,0,0,0,0,-0.177668,-0.0610708,9.876166,0.03132969,-0.672721,-0.08964791,1.66E-05,1.56E-06,3.94E-05,-0.3542928,1.030596,0,1,1,0,0,0,0,0,0,0,0,0,0,0
338,68,0,0,0,0,-0.1936811,-0.07776123,9.892548,0.02709549,-0.7249829,-0.01921094,1.71E-05,1.56E-06,3.94E-05,-0.4503692,1.121587,0,1,1,0,0,0,0,0,0,0,0,0,0,0
339,68,0,0,0,0,-0.200496,-0.06096108,9.900321,0.05564885,0.3912508,0.02362169,1.71E-05,6.25E-08,3.97E-05,-0.3527935,1.160143,0,1,1,0,0,0,0,0,0,0,0,0,0,0
340,68,0,0,0,0,-0.1888674,-0.0652295,9.89088,-0.0324909,0.3653331,0.03974598,1.61E-05,5.63E-07,3.78E-05,-0.3778553,1.093912,0,1,1,0,0,0,0,0,0,0,0,0,0,0
341,68,0,0,0,0,-0.1873042,-0.07428154,9.897927,0.03757976,0.420016,0.04405888,1.76E-05,5.63E-07,3.64E-05,-0.4299828,1.084081,0,1,1,0,0,0,0,0,0,0,0,0,0,0
342,68,0,0,0,0,-0.1901196,-0.06103392,9.892677,-0.09740794,-0.7355341,-0.08974367,1.71E-05,1.56E-06,3.89E-05,-0.3534879,1.100966,0,1,1,0,0,0,0,0,0,0,0,0,0,0
343,68,0,0,0,0,-0.1836767,-0.06879646,9.877861,-0.1044211,-0.6953048,-0.04211216,1.71E-05,1.06E-06,3.81E-05,-0.3990422,1.065254,0,1,1,0,0,0,0,0,0,0,0,0,0,0
344,68,0,0,0,0,-0.1906371,-0.06280819,9.890296,0.07369026,0.355651,-0.02442151,1.61E-05,1.56E-06,3.78E-05,-0.3638512,1.104227,0,1,1,0,0,0,0,0,0,0,0,0,0,0
345,68,0,0,0,0,-0.195084,-0.07766271,9.880706,-0.04756989,0.3151514,0.01580046,1.71E-05,1.06E-06,3.88E-05,-0.4503377,1.131062,0,1,1,0,0,0,0,0,0,0,0,0,0,0
346,68,0,0,0,0,-0.1839698,-0.06226563,9.886781,0.04841781,0.4020618,0.02941699,1.06E-06,1.06E-06,3.92E-05,-0.3608364,1.065996,0,1,1,0,0,0,0,0,0,0,0,0,0,0
347,68,0,0,0,0,-0.1851967,-0.1940474,9.890028,0.003882967,0.3375678,0.02927645,1.61E-05,1.56E-06,3.79E-05,-1.124028,1.072566,0,1,1,0,0,0,0,0,0,0,0,0,0,0
348,68,0,0,0,0,-0.2136428,-0.05649088,9.883128,0.003794756,0.3327063,0.0631038,1.66E-05,6.25E-08,3.88E-05,-0.3274928,1.238345,0,1,1,0,0,0,0,0,0,0,0,0,0,0
349,68,0,0,0,0,-0.1734527,-0.1984191,9.89538,-0.01992707,-0.6724382,-0.09270409,1.61E-05,1.56E-06,3.97E-05,-1.148723,1.004013,0,1,1,0,0,0,0,0,0,0,0,0,0,0
350,68,0,0,0,0,-0.1904843,-0.06157954,9.885571,0.04763524,0.323895,0.07724377,1.71E-05,1.56E-06,3.86E-05,-0.3569043,1.10387,0,1,1,0,0,0,0,0,0,0,0,0,0,0
351,68,0,0,0,0,-0.1959333,-0.2005097,9.890526,-0.03968613,0.3768372,0.02267873,1.66E-05,5.63E-07,3.91E-05,-1.161393,1.134659,0,1,1,0,0,0,0,0,0,0,0,0,0,0
352,68,0,0,0,0,-0.2055448,-0.06742307,9.890786,-0.04759472,0.3178179,0.05437124,1.66E-05,6.25E-08,3.77E-05,-0.3905652,1.19049,0,1,1,0,0,0,0,0,0,0,0,0,0,0
353,68,0,0,0,0,-0.2069516,-0.06206032,9.897325,0.02741756,-0.7029863,-0.1121392,1.71E-05,6.25E-08,3.99E-05,-0.3592635,1.197848,0,1,1,0,0,0,0,0,0,0,0,0,0,0
354,68,0,0,0,0,-0.18415,-0.2060716,9.894687,-0.07134629,-0.6879043,-0.0823845,1.71E-05,1.56E-06,3.87E-05,-1.193098,1.065978,0,1,1,0,0,0,0,0,0,0,0,0,0,0
355,68,0,0,0,0,-0.2009132,-0.06823302,9.913289,0.003806655,0.3329374,0.05548295,1.61E-05,1.56E-06,3.84E-05,-0.3943598,1.16103,0,1,1,0,0,0,0,0,0,0,0,0,0,0
356,68,0,0,0,0,-0.186103,-0.06171416,9.897426,-0.02779687,-0.7401501,-0.1538612,1.66E-05,1.06E-06,3.66E-05,-0.3572561,1.077195,0,1,1,0,0,0,0,0,0,0,0,0,0,0
357,68,0,0,0,0,-0.2050197,-0.07583098,9.893099,-0.001837269,-0.6913555,-0.05839585,1.66E-05,1.06E-06,3.84E-05,-0.4391658,1.187165,0,1,1,0,0,0,0,0,0,0,0,0,0,0
358,68,0,0,0,0,-0.1858644,-0.07244919,9.890253,0.0917979,0.3370802,-0.001544516,1.66E-05,1.06E-06,3.91E-05,-0.419702,1.076586,0,1,1,0,0,0,0,0,0,0,0,0,0,0
359,68,0,0,0,0,-0.202434,-0.06456386,9.905022,0.05863277,0.3310755,0.1192132,1.71E-05,1.56E-06,3.83E-05,-0.3734655,1.170795,0,1,1,0,0,0,0,0,0,0,0,0,0,0
360,68,0,0,0,0,-0.2057256,-0.05714915,9.877835,0.005566994,-0.6830581,-0.06185879,1.71E-05,1.06E-06,3.76E-05,-0.3314864,1.193106,0,1,1,0,0,0,0,0,0,0,0,0,0,0
361,68,0,0,0,0,-0.1818935,-0.06355389,9.89625,-0.06772029,-0.6978294,-0.1259914,1.61E-05,1.56E-06,3.72E-05,-0.3679494,1.052958,0,1,1,0,0,0,0,0,0,0,0,0,0,0
362,68,0,0,0,0,-0.1902939,-0.1873402,9.881764,0.03336055,0.3585995,0.03688789,1.76E-05,1.06E-06,3.76E-05,-1.086093,1.103015,0,1,1,0,0,0,0,0,0,0,0,0,0,0
363,68,0,0,0,0,-0.1897445,-0.07426418,9.899691,-0.03097517,-0.6711572,-0.03420306,1.66E-05,1.56E-06,3.78E-05,-0.4298058,1.098006,0,1,1,0,0,0,0,0,0,0,0,0,0,0
364,68,0,0,0,0,-0.3139174,-0.07136508,9.870718,0.007596139,0.3356327,-0.02482869,1.66E-05,6.25E-08,3.77E-05,-0.41424,1.82151,0,1,1,0,0,0,0,0,0,0,0,0,0,0
365,68,0,0,0,0,-0.1966723,-0.06082815,9.874303,0.07880005,-0.6850848,-0.07626715,1.66E-05,5.63E-07,3.86E-05,-0.3529517,1.141021,0,1,1,0,0,0,0,0,0,0,0,0,0,0
366,68,0,0,0,0,-0.1914784,-0.06824147,9.897948,0.00750198,0.3306558,0.012809,1.71E-05,1.56E-06,3.74E-05,-0.3950199,1.108238,0,1,1,0,0,0,0,0,0,0,0,0,0,0
367,68,0,0,0,0,-0.199467,-0.2029808,9.907653,0.008890826,-0.7208903,-0.0706268,1.66E-05,6.25E-08,3.68E-05,-1.17367,1.153116,0,1,1,0,0,0,0,0,0,0,0,0,0,0
368,68,0,0,0,0,-0.1804392,-0.05525555,9.906372,-0.01302701,-0.7148625,-0.06793746,1.76E-05,1.06E-06,3.84E-05,-0.3195799,1.04348,0,1,1,0,0,0,0,0,0,0,0,0,0,0
369,68,0,0,0,0,-0.1860364,-0.07368167,9.89557,-0.1262756,-0.6817491,-0.03467946,1.71E-05,1.56E-06,3.83E-05,-0.4266122,1.077002,0,1,1,0,0,0,0,0,0,0,0,0,0,0
370,68,0,0,0,0,-0.2003105,-0.07769714,9.894883,-0.02132392,0.3852494,0.0412002,1.61E-05,1.06E-06,3.81E-05,-0.4498918,1.159693,0,1,1,0,0,0,0,0,0,0,0,0,0,0
371,68,0,0,0,0,-0.1885832,-0.05990763,9.900385,0.05863586,0.3216898,0.04922611,1.61E-05,6.25E-08,3.81E-05,-0.3466949,1.091222,0,1,1,0,0,0,0,0,0,0,0,0,0,0
372,68,0,0,0,0,-0.1871802,-0.06035244,9.875534,0.03287808,0.3145969,0.09653386,1.76E-05,6.25E-08,3.89E-05,-0.3501479,1.08583,0,1,1,0,0,0,0,0,0,0,0,0,0,0
373,68,0,0,0,0,-0.1861923,-0.07071765,9.900323,0.02013297,-0.693215,-0.07204999,1.61E-05,1.56E-06,3.76E-05,-0.4092547,1.07739,0,1,1,0,0,0,0,0,0,0,0,0,0,0
374,68,0,0,0,0,-0.1979758,-0.06502941,9.877819,0.05141774,0.3296033,0.02407154,1.71E-05,1.06E-06,3.94E-05,-0.3771943,1.14817,0,1,1,0,0,0,0,0,0,0,0,0,0,0
375,68,0,0,0,0,-0.1924657,-0.05860154,9.891499,-0.01992501,-0.6786953,-0.1393622,1.76E-05,6.25E-08,3.91E-05,-0.3394412,1.114684,0,1,1,0,0,0,0,0,0,0,0,0,0,0
376,68,0,0,0,0,-0.1893608,-0.07358839,9.887862,0.06590535,0.3210731,0.08674488,1.76E-05,5.63E-07,3.77E-05,-0.4264042,1.097097,0,1,1,0,0,0,0,0,0,0,0,0,0,0
377,68,0,0,0,0,-0.1940528,-0.06884995,9.90385,-0.02903721,0.3331709,-0.02952232,1.66E-05,1.06E-06,3.87E-05,-0.3983045,1.122464,0,1,1,0,0,0,0,0,0,0,0,0,0,0
378,68,0,0,0,0,-0.2006914,-0.05668051,9.887922,-0.08408345,0.3307585,0.04773321,1.76E-05,1.06E-06,3.88E-05,-0.3284329,1.162732,0,1,1,0,0,0,0,0,0,0,0,0,0,0
379,68,0,0,0,0,-0.1889168,-0.2045633,9.857985,0.01135565,0.3566372,0.05007555,1.66E-05,1.06E-06,3.93E-05,-1.188776,1.097636,0,1,1,0,0,0,0,0,0,0,0,0,0,0
380,68,0,0,0,0,-0.201891,-0.07117107,9.906755,-0.01779529,0.3797331,0.1052183,1.76E-05,6.25E-08,3.74E-05,-0.4116112,1.167446,0,1,1,0,0,0,0,0,0,0,0,0,0,0
381,68,0,0,0,0,-0.1896798,-0.05807712,9.897433,0.04579842,-0.6784692,0.007785808,1.71E-05,1.06E-06,3.83E-05,-0.3362019,1.097895,0,1,1,0,0,0,0,0,0,0,0,0,0,0
382,68,0,0,0,0,-0.187171,-0.0724578,9.893798,-0.003396702,0.3505831,0.0888842,1.66E-05,6.25E-08,3.89E-05,-0.4196014,1.083764,0,1,1,0,0,0,0,0,0,0,0,0,0,0
383,68,0,0,0,0,-0.1932253,-0.07060792,9.89674,0.06269467,0.3611003,0.02311477,1.71E-05,6.25E-08,3.86E-05,-0.4087677,1.11848,0,1,1,0,0,0,0,0,0,0,0,0,0,0
384,68,0,0,0,0,-0.1860081,-0.06037073,9.876132,-0.03847862,-0.6876757,-0.01262093,1.61E-05,1.56E-06,3.21E-05,-0.3502328,1.078967,0,1,1,0,0,0,0,0,0,0,0,0,0,0
385,68,0,0,0,0,-0.2020916,-0.06017571,9.876057,0.03845948,-0.685496,-0.03066598,1.71E-05,1.56E-06,3.72E-05,-0.3491041,1.172246,0,1,1,0,0,0,0,0,0,0,0,0,0,0
386,68,0,0,0,0,-0.2073949,-0.06022551,9.892601,0.001795701,-0.7042937,-0.1291422,1.56E-06,1.56E-06,3.91E-05,-0.3488086,1.200988,0,1,1,0,0,0,0,0,0,0,0,0,0,0
